business_id	name	address	city	state	postal_code	stars	review_count	is_open	categories	longitude	latitude
tLpkSwdtqqoXwU0JAGnApw	Wendy's	4602 Northfield Road	Cleveland	OH	44128	3.5	7	1	Restaurants, Fast Food, Burgers	-81.5270257	41.434614
CfwrsG76Wm4iLS22v_wAcg	McDonald's	6421 Pearl Rd	Parma Heights	OH	44130	2.5	15	1	Restaurants, Coffee & Tea, Burgers, Fast Food, Food	-81.7681127787	41.3859494817
grZ6FnfZoj1pQWElAQve3g	Wendy's	2410 W. Liberty	Pittsburgh	PA	15226	2	22	1	Fast Food, Restaurants, Burgers	-80.0241271	40.4002348
v3kXkK9ga8jfgetr0Hb5Eg	McDonald's	31115 Vine St	Willowick	OH	44095	2	8	1	Restaurants, Coffee & Tea, Burgers, Food, Fast Food	-81.469927	41.6429207
usdef3dIb6VXGV8peev2_w	Five Guys	26037 Lorain Rd	North Olmsted	OH	44070	3.5	14	1	Restaurants, American (New), Fast Food, Burgers	-81.9096596	41.4203196
bVE26iEtkEsAWZHMVyAPeQ	Five Guys	3100 Westgate	Fairview Park	OH	44116	3	27	1	Restaurants, Fast Food, American (New), Burgers	-81.850925	41.461215
cprIQ1e2be5LD7jpPEyiSw	McDonald's	3051 E Washington Ave	Madison	WI	53704	3	7	0	Burgers, Restaurants, Fast Food	-89.340903	43.104087
-8PU0Z4Q2Nc-sY0eBj4DiQ	McDonald's	32799 Walker Rd	Avon Lake	OH	44012	1	12	1	Burgers, Fast Food, Restaurants, Coffee & Tea, Food	-82.0201537495	41.492595134
n3AHTASqE5QCfuq0AQpT5Q	McDonald's	616 E Green St	Champaign	IL	61820	1.5	6	1	Coffee & Tea, Food, Burgers, Restaurants, Fast Food	-88.229836	40.11043
Hl_RQeOOaEjWvO7eGkb1Lg	Burger King	36240 Detroit Rd	Avon	OH	44011	1.5	5	1	Restaurants, Burgers, Fast Food, Hot Dogs, Food	-82.0250287	41.4585553
nrxmMlgoiScXTLIGzv3o5Q	Wendy's	515 E. Main Street	Kent	OH	44240	1.5	15	1	Fast Food, Burgers, Restaurants	-81.350693	41.154107
lT4-nAyBJE2NJvi_dGwU5Q	Wendy's	743 W. Main St.	Sun Prairie	WI	53590	1.5	7	1	Fast Food, Restaurants, Burgers	-89.2258822	43.181679
avgWQOnKiRAoJiG4RMDeiQ	Burger King	810 North Main Street	Oregon	WI	53575	2	13	1	Burgers, Fast Food, Restaurants	-89.3829513	42.9384063
XcBRdmFOBEKmgKbPvz5s0g	Burger King	1901 Route 286	Pittsburgh	PA	15239	2	3	1	Restaurants, Fast Food, Burgers	-79.7139899088	40.4512282576
CxvirkRLRYaspG6GKn73YQ	McDonald's	22801 Emery Rd	Warrensville Heights	OH	44128	1	4	0	Burgers, Food, Restaurants, Coffee & Tea, Fast Food	-81.5187796	41.4352392
0DeOsUXPoxtfCzHJg76R-Q	Burger King	616 West Broad Street	Elyria	OH	44035	3	4	1	Fast Food, Restaurants, Burgers	-82.110874	41.36738
f0O3dXG2t3QUFw8ogNRVjA	Wendy's	5740 Broadview	Parma	OH	44134	1.5	15	1	Fast Food, Burgers, Restaurants	-81.6917805	41.4063048
di3wdIs-q4Y3GHM2YFYIdg	McDonald's	482 Howe Ave	Cuyahoga Falls	OH	44221	3	5	1	Fast Food, Burgers, Coffee & Tea, Food, Restaurants	-81.4772419631	41.1186279924
ghovD5ZTGDQ5Q2U4ERddWw	Five Guys	3863 Medina Rd	Fairlawn	OH	44333	4	29	1	Restaurants, Burgers, American (New), Fast Food	-81.6397122	41.1365608
vcV1q5onsIMFhOBxwNow7A	McDonald's	22535 Lorain Rd	Fairview Park	OH	44126	2.5	9	1	Fast Food, Coffee & Tea, Restaurants, Food, Burgers	-81.8693608046	41.4392079773
PHJpAJUUzNOpKgsJgjzuww	Burger King	5995 Andrews Rd	Mentor On The Lake	OH	44060	2.5	5	1	Restaurants, Fast Food, Burgers, Hot Dogs	-81.3607571	41.7081878
7dnXdS-vLMqGogRmTUi76A	McDonald's	199 W Garfield	Aurora	OH	44202	2	7	1	Burgers, Restaurants, Coffee & Tea, Fast Food, Food	-81.3523595	41.3168386
nwjIvTxJt2GpMoKzuKWIBQ	McDonald's	2518 W Liberty Rd	Pittsburgh	PA	15226	2	29	1	Burgers, Restaurants, Coffee & Tea, Fast Food, Food	-80.026439	40.3987796
DNKb7_EJPGBULaUwL0mq8g	McDonald's	2925 Freeport Rd	Pittsburgh	PA	15238	2	14	1	Food, Burgers, Coffee & Tea, Restaurants, Fast Food	-79.8301523924	40.5391735896
trZ9PBGPUil8NEAoFdb1rQ	McDonald's	10700 Brookpark Rd	Brooklyn	OH	44130	1	8	1	Fast Food, Food, Burgers, Restaurants, Coffee & Tea	-81.7589984742	41.4189079924
wSJflDkXz9BPxiqElNe0jw	McDonald's	6083 Andrews Rd	Mentor	OH	44060	2	8	1	Restaurants, Fast Food, Food, Burgers, Coffee & Tea	-81.3606771827	41.7058947193
8r9G0fUJpCFnbFWMdzzdMw	Burger King	3305 Clark Ave	Cleveland	OH	44109	1.5	5	1	Restaurants, Burgers, Hot Dogs, Fast Food	-81.705804	41.469542
YYEm5MR6HMCQYI0k1wVnXA	Wendy's	3410 William Penn Hwy	Pittsburgh	PA	15235	1.5	10	1	Restaurants, Fast Food, Burgers	-79.8137648466	40.4303453194
9z7Nlp24nc4nUbtaQDKOAQ	Burger King	105 Evco Circle	De Forest	WI	53532	3	3	1	Restaurants, Fast Food, Burgers	-89.372806	43.249809
q8TX-umIvle22sSC3kkHlw	Burger King	2828 Medina Rd	Medina	OH	44256	3.5	6	1	Restaurants, Fast Food, Burgers, Hot Dogs	-81.789114	41.1356993
n8tzdLv8oREwZF6e8u7Hkw	Wendy's	3910 Washington Ave	Madison	WI	53704	2	12	1	Restaurants, Fast Food, Burgers	-89.3179388	43.1218414
4PxeFwWzGW5PnUkknwen3g	Wendy's	14015 Lorain Ave.	Cleveland	OH	44111	1.5	17	1	Fast Food, Restaurants, Burgers	-81.790696	41.4546933
AlNp5mSR8N7rAvONm8BXBQ	McDonald's	4346 Kent Rd	Stow	OH	44224	1.5	9	1	Burgers, Restaurants, Fast Food, Coffee & Tea, Food	-81.4050481	41.1559356
Uc2PqdAPWPMxe6_YHB4wHQ	Wendy's	1703 S. Braddock Ave	Swissvale	PA	15218	2	13	1	Restaurants, Fast Food, Burgers	-79.8883623271	40.42523807
108nrHD9k3qtJPJZE9xmoA	Five Guys	500 S Park Ctr	Strongsville	OH	44136	3.5	25	0	Restaurants, Fast Food, American (New), Burgers	-81.834621706	41.3056545565
2ySggR1WGE4A4cD03akTcQ	McDonald's	1069 N Court St	Medina	OH	44256	3	12	1	Food, Restaurants, Coffee & Tea, Burgers, Fast Food	-81.8630508287	41.1574713509
Qwo5XmriFv2KAcNUwxl6_A	McDonald's	1865 New Texas Rd	Plum	PA	15239	2.5	4	1	Fast Food, Restaurants, Burgers, Coffee & Tea, Food	-79.7142058611	40.4506149597
oqVcCVbwjcA1LXzGfR2z9w	McDonald's	2741 Leechburg Rd	Lower Burrell	PA	15068	1.5	14	1	Restaurants, Coffee & Tea, Burgers, Food, Fast Food	-79.7355616093	40.5910240674
CP7TRCpeBr1sTtWqcfRHxQ	McDonald's	225 Mount Lebanon Blvd	Castle Shannon	PA	15234	2	9	1	Fast Food, Food, Restaurants, Coffee & Tea, Burgers	-80.0378389491	40.368614136
pfGV7rxls65U-yusYR_zfw	Burger King	7998 Leavitt Rd	Amherst	OH	44001	2	4	1	Burgers, Restaurants, Fast Food	-82.211264	41.378803
Na4PriVltR13E48ZdVRl6A	McDonald's	4618 William Flynn Hwy	Hampton Township	PA	15101	3.5	7	1	Burgers, Restaurants, Fast Food, Coffee & Tea, Food	-79.947925508	40.5899863109
XkA8scf2M_-CirepJSACXg	Wendy's	3309 Center Road	Brunswick	OH	44212	3.5	7	1	Fast Food, Restaurants, Burgers	-81.8055051	41.2387296
-ga9DRU4HE6Li9_tWH3_Fg	McDonald's	651 W Main St	Waunakee	WI	53597	2.5	7	1	Fast Food, Coffee & Tea, Burgers, Restaurants, Food	-89.4661277533	43.1923628304
hCxM2MH3cDaqozUDpydXZg	McDonald's	6400 Middle Ridge Rd	Lorain	OH	44053	3	8	1	Burgers, Restaurants, Food, Fast Food, Coffee & Tea	-82.1653532982	41.4133504393
awGiEZOQ7ldhrzTbibpV2w	McDonald's	5616 Memphis Ave	Cleveland	OH	44144	1	15	1	Food, Fast Food, Restaurants, Coffee & Tea, Burgers	-81.7250217497	41.4402200773
j-cWaWDwmAeZZGSEERIcaQ	McDonald's	17638 Chillicothe Rd	Bainbridge	OH	44023	3	17	1	Food, Coffee & Tea, Restaurants, Fast Food, Burgers	-81.3400885463	41.389821204
6VWmXeUDmMvVhb8zqWti-w	Wendy's	1125 Washington Pike	Bridgeville	PA	15017	2	12	1	Restaurants, Fast Food, Burgers	-80.104117	40.368031
2WVNZiLZQqzVZchyPpr7Wg	McDonald's	5301 Pearl Rd	Parma	OH	44129	1.5	6	1	Food, Coffee & Tea, Burgers, Fast Food, Restaurants	-81.7305906862	41.415929184
HfNgywD3im9Im5n7hG-9qA	McDonald's	State Hwy 19 And County Rd N	Sun Prairie	WI	53590	1	7	0	Restaurants, Fast Food, Burgers	-89.212639	43.1878022
R_RQyidw2F6bPb2NGbRxLw	Wendy's	3500 Washington Rd	Mcmurray	PA	15317	1.5	3	1	Burgers, Fast Food, Restaurants, Hot Dogs	-80.1207449	40.2849646
7vqsCTpH_QFomi0Q_URf2w	Wendy's	5025 Darrow Road	Stow	OH	44224	1	10	1	Fast Food, Restaurants, Burgers	-81.4397133	41.2017224
rn7oMLg6JJpDAJ_okzt67w	Burger King	PA Turnpike East Mile Post 493  2	Verona	PA	15147	2.5	6	1	Restaurants, Food, Burgers, Fast Food	-79.8139625	40.5209721
3_B0wzo2p5tVU8zGiRNMCg	McDonald's	430 Water St	Chardon	OH	44024	1.5	5	1	Restaurants, Burgers, Food, Fast Food, Coffee & Tea	-81.2117970688	41.5814429782
1g6pAWy0Zh-mPVG_XSspLQ	McDonald's	1300 W Pleasant Vly	Parma	OH	44134	2	16	1	Burgers, Food, Coffee & Tea, Fast Food, Restaurants	-81.6873491	41.3619918
quYlYKkiZ5qRLdu-_hew7g	Burger King	8459 Mayfield Rd	Chesterland	OH	44026	1.5	5	1	Burgers, Restaurants, Fast Food	-81.3396319	41.5215403
LOARujcfx-Ty_RUlcnYspg	Burger King	2655 East Washington Ave	Madison	WI	53704	1.5	33	1	Restaurants, Fast Food, Burgers	-89.3474943	43.1013284
zzbsLej_8KtTxGwJdOb09w	Wendy's	5855 Som Center	Willoughby	OH	44094	3.5	11	1	Restaurants, Fast Food, Burgers	-81.4353374967	41.6261541696
Dr9LOH9UVaWmPh1Gkh6VkQ	Five Guys	9180 Mentor Ave	Mentor	OH	44060	4.5	14	1	Burgers, Restaurants, Fast Food	-81.3117769	41.675962
kp_CMAIdAgzse2NYtYsJRw	Burger King	1575 South Water Street	Kent	OH	44240	2.5	3	1	Restaurants, Burgers, Fast Food	-81.35483	41.1372863
x_0Vf8AVBk_auLnNHRjoVA	McDonald's	134 W Steetsboro Rd	Hudson	OH	44236	2.5	14	1	Restaurants, Burgers, Coffee & Tea, Food, Fast Food	-81.4490237832	41.2397464017
_dGND4z03G9REQh_KvfLUw	McDonald's	107 Horizon Dr	Verona	WI	53719	2	12	1	Food, Restaurants, Coffee & Tea, Fast Food, Burgers	-89.5238475	42.993864
WhE9x893xLpGE4uwqxWRPw	McDonald's	2841 Bishop Rd	Willoughby Hills	OH	44092	2	8	1	Sandwiches, Burgers, Restaurants, Food, Coffee & Tea, Fast Food	-81.4792308211	41.5850272314
o10-_WmF3MF5uXwMWGg5VQ	Wendy's	4037 Mayfield Road	S.Euclid	OH	44121	1	25	1	Fast Food, Burgers, Restaurants	-81.5347328	41.5210219
aQKix0iMREiJsFGr7mH1mA	Wendy's	6296 Steubenville Pk	Pittsburgh	PA	15205	1	5	1	Fast Food, Restaurants, Burgers	-80.1534225986	40.4474531254
mBBsJUT6x-_Wr9qOy3TBxQ	McDonald's	2500 Denison Ave	Cleveland	OH	44109	3	5	1	Fast Food, Food, Coffee & Tea, Restaurants, Burgers	-81.7023557425	41.4510006035
USXA_daAmAkcEzHju4Hpqw	McDonald's	8380 Broadmoor Rd	Mentor	OH	44060	2.5	11	1	Coffee & Tea, Fast Food, Restaurants, Burgers, Food	-81.3757423049	41.6424638491
kE7_pIsUavOAQ9LSRcKCWg	Wendy's	113 Cavasina Drive	Canonsburg	PA	15317	1.5	9	1	Fast Food, Restaurants, Burgers	-80.1738737	40.2634088
Is-_AVNBzjTWwB6uq0c5GA	Five Guys	160 Millers Run Rd	Bridgeville	PA	15017	3.5	12	1	Fast Food, Restaurants, Burgers	-80.1205592	40.3580055
eCmLyXPKBxK7p_MKmBwT9Q	McDonald's	711 W Champaign	Rantoul	IL	61866	2	12	1	Coffee & Tea, Fast Food, Food, Burgers, Restaurants	-88.17262844	40.3078436
BX-JlaAowcQ5FpPsS4d9rg	Burger King	3299 Steelyard	Cleveland	OH	44109	1.5	15	1	Burgers, Restaurants, Hot Dogs, Fast Food	-81.6874242	41.4638351
jf_N8zWp30usaMLXdJs9Jg	Wendy's	802 W View Park Dr	Pittsburgh	PA	15229	1.5	20	0	Fast Food, Burgers, Restaurants	-80.0321249	40.517685
kEbdBwyqucFNNi0iCEmmPA	Wendy's	13246 Cedar Road	Cleveland Hts.	OH	44118	2	19	1	Restaurants, Burgers, Fast Food	-81.5634775	41.5010333
KKOmfySnxK96EtlgOU9Hjg	Wendy's	505 N Cunningham	Urbana	IL	61802	2	12	1	Restaurants, Fast Food, Burgers	-88.2051296	40.1172246
Sg3qj0mhSEYX4Co3fVHHwQ	McDonald's	4235 Walnut St	McKeesport	PA	15132	1.5	17	1	Coffee & Tea, Restaurants, Burgers, Fast Food, Food	-79.8357454687	40.3209610993
r1Y1wRqLu3gqpis-ccNBow	Wendy's	604 North Levitt	Amherst	OH	44001	2	10	1	Fast Food, Restaurants, Burgers	-82.2099763	41.4122754
k7vX7EO6a88gMxTAz5tiCw	McDonald's	4800 Larson Beach Rd	McFarland	WI	53558	2	12	1	Restaurants, Coffee & Tea, Burgers, Food, Fast Food	-89.299713	43.017724
pcQ0hmOHB_oqrG-Mn7ewYg	McDonald's	1810 Merriman Rd	Akron	OH	44313	1.5	14	1	Burgers, Fast Food, Food, Coffee & Tea, Restaurants, Hot Dogs	-81.5544623378	41.1348096129
mzGrMnuHJpPJEF7E4esGqw	Burger King	20333 Center Ridge Rd	Rocky River	OH	44116	1.5	7	1	Fast Food, Restaurants, Burgers	-81.8451898	41.4637221
UTodxk-Mjmvf_Zc7f5pdTw	McDonald's	3760 William Penn Hwy	Monroeville	PA	15146	1.5	19	1	Coffee & Tea, Restaurants, Burgers, Food, Fast Food	-79.7869004	40.4353762
E7TOyAtKL06CJp8SSM9WXg	Burger King	1901 Lincoln Hwy	North Versailles	PA	15137	2	11	0	Fast Food, Australian, Burgers, Restaurants	-79.7788754325	40.36786376
lRfteK8D_8pfoFTk4ZuOqw	Wendy's	4524 Browns Hill Rd.	Pittsburgh	PA	15217	1	36	1	Restaurants, Burgers, Fast Food	-79.925176	40.416731
T-_xEyoDPAKV-I6iQlbKWA	McDonald's	3050 Carnegie Ave	Cleveland	OH	44115	1.5	37	1	Fast Food, Coffee & Tea, Burgers, Restaurants, Food	-81.6654452	41.4996263054
XyNFUZW-uiu4pI4y700TJg	McDonald's	600 Pine Hollow Rd	McKees Rocks	PA	15136	1	5	1	Restaurants, Fast Food, Burgers, Coffee & Tea, Food	-80.0956963701	40.4739402725
2dTjaNEpiVeBAt6JLBQsOw	McDonald's	9439 Sr 14	Streetsboro	OH	44241	1.5	31	1	Fast Food, Coffee & Tea, Food, Burgers, Restaurants	-81.3539662957	41.2421101751
AnPzJ_xF7QxtrSvLTvWjGg	McDonald's	606 E Main St	Sun Prairie	WI	53590	2	11	1	Food, Fast Food, Burgers, Coffee & Tea, Restaurants	-89.2066910863	43.1814042532
969_545ulxR1n0kBR76FnQ	Burger King	3056 Graham Rd	Stow	OH	44224	3.5	3	1	Restaurants, Burgers, Fast Food	-81.4031475	41.1659893
cGwjmFa3tNmM9BUgLTKdYw	Five Guys	753 Howe Avenue And Clyde Ave	Cuyahoga Falls	OH	44221	4.5	21	1	Fast Food, American (New), Restaurants, Burgers	-81.4723351	41.1195816
V4NwBv9O6DWTl36ZKZrfpw	Wendy's	208 Rodi Road	Penn Hills	PA	15235	1.5	14	1	Restaurants, Burgers, Fast Food	-79.8243753225	40.4637665445
_4Tus-IHFA4ErdNg32yvBQ	Wendy's	29778 Detroit Road	Westlake	OH	44145	2	13	1	Restaurants, Fast Food, Burgers	-81.9505434	41.4643225
HqzT2TsomtpB_5BDjNtaBA	Wendy's	6899 Rockside Road	Independence	OH	44131	2.5	12	1	Fast Food, Restaurants, Burgers	-81.6423854706	41.3949424216
NHHDDrnQXabrbmrQuahbeg	Wendy's	6530 Pearl Road	Parma Hts.	OH	44130	2.5	9	1	Burgers, Restaurants, Fast Food	-81.7734260944	41.3849762659
wYcCWaqjikA6DnLFBthj_g	Burger King	6671 Pearl Rd	Parma Heights	OH	44130	2	9	1	Fast Food, Restaurants, Hot Dogs, Burgers	-81.781636	41.3813214
Co1cnSA3o3sSNdsGbItXSw	McDonald's	505 Lincoln Hwy	North Versailles	PA	15137	1.5	14	1	Burgers, Fast Food, Automotive, Restaurants, Convenience Stores, Gas Stations, Coffee & Tea, Food	-79.8240781072	40.3841117109
PIDtIPKa4Fmd6eMEi7B2jA	McDonald's	18070 Bagley Rd	Middleburg Heights	OH	44130	2.5	12	1	Fast Food, Food, Coffee & Tea, Restaurants, Burgers	-81.8271546684	41.3724450941
y5TdoIb0kddMn99Ahp206A	Burger King	2900 Brownsville Rd	Pittsburgh	PA	15227	3.5	10	1	Restaurants, Burgers, Fast Food	-79.976991	40.3823685
c6yZyJqvecI-vne3aNsNRA	McDonald's	14235 Puritas Rd	Cleveland	OH	44135	1.5	6	1	Burgers, Coffee & Tea, Fast Food, Food, Restaurants	-81.7934381962	41.4332214271
BLWR8UaDExMxx1z3fhu0Fg	Burger King	26270 Lorain Rd	North Olmsted	OH	44070	2.5	10	1	Fast Food, Hot Dogs, Restaurants, Burgers	-81.9133868	41.4198868
szNZuBmhRguqQH6aO3OS4A	McDonald's	2251 Century Dr	West Mifflin	PA	15122	2.5	3	0	Restaurants, Burgers, Fast Food, Coffee & Tea, Food	-79.949698	40.3443367
U_Hxyrx7yGDliv_TPa6i_A	McDonald's	1006 Purnell Dr	Mahomet	IL	61853	2	14	1	Coffee & Tea, Fast Food, Restaurants, Food, Burgers	-88.3682081	40.1854262
vdocaPsNLvbGJFF4ARzbzA	Burger King	1508 West River Rd	Elyria	OH	44035	1.5	5	1	Fast Food, Burgers, Hot Dogs, Restaurants	-82.1158076	41.3647506
ELlk3Vol0lPKzwHxp-MoAw	Burger King	4885 William Flynn Hwy	Allison Park	PA	15101	3.5	8	1	Fast Food, Restaurants, Burgers	-79.9478384	40.6019295
d0GmiP5cai20VZr0a_bNnQ	McDonald's	2090 Lebanon Church Rd	West Mifflin	PA	15122	2	11	1	Coffee & Tea, Restaurants, Burgers, Fast Food, Food	-79.9453047	40.3479004018
myyJxx7nvs-5_T-Uvc-kLw	Wendy's	1401 W. Green Street	Urbana	IL	61801	1.5	7	1	Burgers, Fast Food, Restaurants	-88.2302236969	40.1107993405
w-pXv6yfjkA0wi-yi3F8UQ	Burger King	31305 Vine Street	Willowick	OH	44095	3	6	1	Hot Dogs, Burgers, Restaurants, Fast Food	-81.4686055854	41.6428275041
ax8kuBZVtC0_eCn_rN_-6A	Burger King	1820 East Carson Street	Pittsburgh	PA	15203	2	45	1	Fast Food, Restaurants, Burgers	-79.9795539	40.4284472
I-D4qEtJJ4okSLrLKxMMRw	Burger King	2799 Freeport Rd	Pittsburgh	PA	15238	3.5	8	1	Fast Food, Restaurants, Burgers	-79.8331984636	40.5384317321
XV9KK1vTTzrYLYxQPMuM9Q	Wendy's	23050 Broadway	Oakwood Village	OH	44146	2.5	10	1	Fast Food, Burgers, Restaurants	-81.5138908441	41.3693203355
8RbNzNeaUh5e8PJOnp1e4Q	McDonald's	1029 N Main St	Oregon	WI	53575	1.5	25	1	Burgers, Coffee & Tea, Food, Restaurants, Fast Food	-89.3837457	42.9423148
TPcDS5qMbroEdTX_glnT4g	McDonald's	4618 E Royalton Rd	Broadview Heights	OH	44147	2.5	8	1	Restaurants, American (Traditional), Burgers, Coffee & Tea, Food, Fast Food	-81.653613000000000	41.31437
AiIJ-hhr954_LPp0CC4h-A	McDonald's	8308 Greenway Blvd	Middleton	WI	53562	2.5	26	1	Restaurants, Burgers, Fast Food, Food, Coffee & Tea	-89.5250666142	43.0905599286
miiptVrDH-qHT4wmI-Lk8g	Wendy's	633 S. Gammon Road	Madison	WI	53719	3	14	1	Fast Food, Burgers, Restaurants	-89.5024719	43.0510621
UobSPAAzgt7HKmWoepi31A	McDonald's	30100 Detroit Rd	Westlake	OH	44145	2	20	1	Fast Food, Restaurants, Food, Burgers, Coffee & Tea	-81.9539268315	41.4637571887
iJ0UcpdQ28WBpZ_QtASCaA	Burger King	14902 Puritas Ave	Cleveland	OH	44135	2.5	3	1	Restaurants, Burgers, Fast Food	-81.8003589	41.433957
RagiJXWUQTgV1scGNbWGtg	Wendy's	5219 Brecksville Rd	Richfield	OH	44286	1.5	12	1	Fast Food, Restaurants, Burgers	-81.6264363	41.2761778
h5ZeHDpJXHkB-Sqa5gKsQw	McDonald's	401 W Cottage Grv	Cottage Grove	WI	53527	1.5	11	1	Restaurants, Fast Food, Burgers, Food, Coffee & Tea	-89.2093236744	43.0872218905
Xoahafjr-Hz9zLrodYvDBA	Burger King	720 West Champaign Ave	Rantoul	IL	61866	2	19	1	Burgers, Restaurants, Fast Food, Hot Dogs	-88.1734807	40.3086346
W3LsG6pz_RM4DXhfX6NSgw	McDonald's	36390 Euclid Ave	Willoughby	OH	44094	1.5	9	1	Food, Restaurants, Burgers, Fast Food, Coffee & Tea	-81.428097859	41.6271793094
suIn6SJHBJaOVOOikpWNOg	Burger King	6251 Mayfield Rd	Mayfield Hts	OH	44124	1.5	18	1	Restaurants, Fast Food, Burgers	-81.4542728	41.5203993
oHvo9vcYoOC36pLkCFUQjw	Burger King	1900 Cooper Foster Rd	Lorain	OH	44053	1.5	3	1	Fast Food, Burgers, Restaurants	-82.2006669	41.418627
v2AAGuPuH2QGGwosWZw_qA	McDonald's	3709 Kinsman Blvd	Madison	WI	53704	2	4	1	Fast Food, Restaurants, Burgers, Food, Coffee & Tea	-89.3244300076	43.125315352
PxZBTBvhKcTQ0pXhCdy4Ng	Wendy's	8703 University Blvd.	Moon Twp	PA	15108	2.5	9	1	Restaurants, Burgers, Fast Food	-80.2226549	40.5060071
gOaveyoq1_-xeDEm4ea49g	Burger King	1106 West University Ave	Urbana	IL	61801	2.5	3	1	Restaurants, Fast Food, Burgers	-88.2231811	40.1166154
wCoAzScVWpL9bsDsyf1EIQ	McDonald's	601 N Cunningham	Urbana	IL	61801	2	10	1	Restaurants, Fast Food, Food, Burgers, Coffee & Tea	-88.2044307038	40.1182515363
ESIGmCLS5RgOLCWN7e8TFQ	McDonald's	1349 E Tallmadge Ave	Akron	OH	44310	1	8	1	Restaurants, Burgers, Fast Food, Coffee & Tea, Food	-81.4659614	41.102459
W6_HAvErr18PWOyIUCDdSA	Burger King	4625 Northfield Rd	Cleveland	OH	44128	2	3	1	Restaurants, Fast Food, Burgers	-81.5254166	41.4322189
jux9zFaGcIRjrMIBaVJsHQ	Burger King	719 W Badger Rd	Madison	WI	53713	3	10	1	Burgers, Food, Restaurants, Fast Food	-89.393016	43.038112
fKJK8Wrfhq9n6qNqWZ6J0Q	Burger King	3456 Mayfield Rd	Cleveland Heights	OH	44118	2	10	1	Restaurants, Fast Food, Burgers	-81.5495084	41.5159059
ztG_sG9ugajX9crrzh0UyA	McDonald's	7015 Detroit Ave	Cleveland	OH	44102	2	7	1	Restaurants, Burgers, Coffee & Tea, Fast Food, Food	-81.7337201536	41.4827838784
s8sAe29mA8q1eQwdC1qAKw	Wendy's	534 State St	Madison	WI	53703	2	10	0	Burgers, Fast Food, Restaurants	-89.394324	43.0751289
_tJ1mf_KEL4sx5fh9DTtTw	McDonald's	4020 Milwaukee St	Madison	WI	53704	1.5	24	1	Restaurants, Burgers, Food, Fast Food, Coffee & Tea	-89.3148384896	43.0989322847
znaF77z3hCOqpLNEPhi1yg	McDonald's	15629 Broadway Ave	Maple Heights	OH	44137	1.5	5	1	Food, Restaurants, Burgers, Fast Food, Coffee & Tea	-81.5720278807	41.4175082364
FuxoVLzUrVwJWImV3nghVg	McDonald's	8210 Euclid Ave	Cleveland	OH	44103	1	13	1	Fast Food, Burgers, Restaurants, Food, Coffee & Tea	-81.6300559498	41.5030905708
KSIGq7FtrwsJ5IBmyGEUKA	Burger King	15027 Detroit Ave	Lakewood	OH	44107	2	7	0	Burgers, Fast Food, Restaurants	-81.8015761	41.4847036
leG7stzwTdc37b8Ma1TEeA	McDonald's	82 Fort Couch Rd	Pittsburgh	PA	15241	1.5	17	1	Restaurants, Coffee & Tea, Food, Burgers, Fast Food	-80.0507712847	40.3381215356
Ci8mH1OTVhH-kl2Cq8-QNQ	Burger King	2379 Noblestown Rd	Pittsburgh	PA	15205	1.5	27	1	Restaurants, Burgers, Fast Food	-80.0562239	40.4264222
bUbKPCN1RQcykWHj6jZCig	Wendy's	1331 W. 117Th Street	Cleveland	OH	44107	1.5	19	1	Fast Food, Burgers, Sandwiches, Restaurants	-81.7684235	41.4855703
7TMcUzNqnUV5Bfwni800HQ	McDonald's	115 Logans Ferry Rd	Lower Burrell	PA	15068	2	6	1	Burgers, Restaurants, Hot Dogs, Coffee & Tea, Food, Fast Food	-79.7569294274	40.5518704511
S_KsGVQV_FwPLmoVHHdmFQ	McDonald's	15551 Kinsman Rd	Middlefield	OH	44062	2	3	1	Food, Fast Food, Restaurants, Coffee & Tea, Burgers	-81.0860775652	41.462353277
x9ABq0u2quurwRYlVDydVg	Five Guys	1000 Ross Park Mall Dr	Pittsburgh	PA	15237	3	7	1	American (New), Fast Food, Restaurants, Burgers	-80.0087509	40.5445585
qvQrZ6XHC4KOQEWyYkR_tQ	Five Guys	4184 Pearl Rd	Medina	OH	44256	3	8	1	Restaurants, Burgers, Fast Food	-81.8630291	41.1611767
ByNk-TOnPjoAKrk8NjCW9g	Wendy's	2280 Lebanon Church Rd	W.Mifflin	PA	15122	2.5	6	1	Burgers, Restaurants, Fast Food	-79.9428923	40.3484629
dFZ8hE_RZJeCuWnfY1oo4w	McDonald's	23 Southeast Ave	Tallmadge	OH	44278	2	10	1	Burgers, Fast Food, Hot Dogs, Coffee & Tea, Restaurants, Food	-81.4391004	41.100594
TTZeAqyG5L5JzoX6aMhfHA	Wendy's	126 Flight Memorial Drive	Fairlawn	OH	44333	1.5	9	1	Restaurants, Fast Food, Burgers	-81.6431377862	41.1341362521
uxm2CPgLbs98s9OGPu5gXg	Five Guys	17695 Bagley Rd	Middleburg Heights	OH	44130	4	24	1	American (New), Burgers, Restaurants, Fast Food	-81.8239072	41.3714793
beBdNA6cEuDLvrhTi_EjKQ	McDonald's	501 N Mattis	Champaign	IL	61821	1.5	15	1	Coffee & Tea, Restaurants, Fast Food, Food, Burgers	-88.2774235	40.1205718
NHersw9tR7dnmlZINOBi9Q	McDonald's	230 W Huron Rd	Cleveland	OH	44113	1	5	0	Burgers, Fast Food, Restaurants	-81.6936185	41.4969048
Y0_KRVDTasHCTh_P-WRSqg	Burger King	2105 West Springfield Ave	Champaign	IL	61821	2	9	1	Burgers, Restaurants, Hot Dogs, Fast Food	-88.2815084	40.112532
8hZblciqzGSBxq22K3FRtQ	McDonald's	7505 Day Dr	Parma	OH	44129	2.5	11	1	Fast Food, Restaurants, Coffee & Tea, Food, Burgers	-81.7360962	41.3798258
E4U8RCe42CpT3rtof7hEwQ	Wendy's	2691 Freeport Rd.	Pittsburgh	PA	15238	2	6	1	Burgers, Restaurants, Fast Food	-79.8354162	40.5380993
RDIwHXfEOoUYM5jnMzdLcg	Wendy's	21250 Center Ridge Rd.	Rocky River	OH	44116	1.5	19	1	Burgers, Restaurants, Fast Food	-81.8556677	41.4610685
qrcAGkBi0Qhg0HIfUJBDhg	Burger King	5940 University Blvd	Coraopolis	PA	15108	1.5	12	1	Restaurants, Burgers, Fast Food	-80.2180289715	40.5218954862
vqa8Q38bnFSsPQEahuiqRQ	Burger King	4123 Pearl Rd	Cleveland	OH	44109	3.5	3	1	Fast Food, Burgers, Restaurants	-81.7034948	41.4430534
3a1w3Ufs9CCC3GJTAV8EpQ	McDonald's	4500 University Ave	Madison	WI	53705	2.5	10	1	Fast Food, Burgers, Coffee & Tea, Food, Restaurants	-89.4548245015	43.0759110665
lq-S8rP-advEFlshnCV3gQ	Burger King	2828 Carnegie Ave	Cleveland	OH	44115	2	11	1	Fast Food, Burgers, Restaurants	-81.6680124	41.499427
f8q51Apmg7Ojq4S1cXh9tw	McDonald's	3921 Wheatley Rd	Richfield	OH	44286	2.5	19	1	Restaurants, Fast Food, Food, Filipino, Burgers, Coffee & Tea	-81.6291927	41.2211289
Vd2fEopYlkAqtW9ePfKZHg	Burger King	2224 Leavitt Rd	Lorain	OH	44052	3	3	1	Burgers, Fast Food, Restaurants	-82.202813	41.4493566
t99PAVtrCQKadEsKnjUYkw	McDonald's	4905 Monona Dr	Monona	WI	53716	1.5	10	1	Restaurants, Coffee & Tea, Food, Burgers, Fast Food	-89.326637825	43.0667158085
AtxsOItCn8Ey5daq7TjzSA	McDonald's	1301 Perimeter Rd	Mount Horeb	WI	53572	1.5	12	1	Fast Food, Restaurants, Food, Burgers, Coffee & Tea	-89.7224979743	43.0096094794
xJfM3UbnaQkLPEMZgLNuyQ	Wendy's	8104 Broadway	Cleveland	OH	44105	2.5	3	1	Fast Food, Restaurants, Burgers	-81.6309292	41.4511779
F5Fq0GrN3BkwMdm9i06clA	McDonald's	15500 Broadway Ave	Maple Heights	OH	44137	1.5	7	0	Restaurants, Fast Food, Burgers	-81.5725017981	41.4177130698
2UCzVYukzHitLxHvwr8Kqg	Wendy's	103 Northtowne Square	Gibsonia	PA	15044	1.5	4	1	Restaurants, Burgers, Fast Food	-79.939338	40.637709
pmkqmJHvl09o6NoBP4d_TQ	McDonald's	2626 Allen Blvd	Middleton	WI	53562	1.5	12	1	Food, Burgers, Fast Food, Coffee & Tea, Restaurants	-89.4872742891	43.1038969304
cfjkP0icF3wdaOJQJUy9sw	Wendy's	5422 Baum Blvd.	Pittsburgh	PA	15232	2	51	1	Fast Food, Restaurants, Burgers	-79.9377973675	40.4571266518
ewsYllWspvnP8aP0C4ctLQ	McDonald's	981 W North St	Deforest	WI	53532	1.5	15	1	Restaurants, Fast Food, Food, Burgers, Coffee & Tea	-89.3754141033	43.2498818862
3WM_jqSaMju2zEGYLK5HPQ	Burger King	4095 State Rd	Cuyahoga Falls	OH	44223	2	3	1	Hot Dogs, Fast Food, Burgers, Restaurants	-81.507993	41.182844
xqBAXE1lpxKBEGLCiuK8bA	Wendy's	1410 Colorado Ave	Lorain	OH	44052	2	5	1	Restaurants, Burgers, Fast Food	-82.1563414	41.4652395
sARejHFyWLA93RgGwkhy5g	Burger King	8515 Euclid Ave	Cleveland	OH	44106	3	13	1	Burgers, Restaurants, Fast Food	-81.6274713779	41.5039551302
8JT3Nh314calBrKf6i7Pzw	Burger King	799 Front Street	Berea	OH	44017	4.5	4	1	Fast Food, Burgers, Restaurants	-81.8535583	41.387381
GBPZ8UB7WRmnl1deCJCaPg	Wendy's	34323 Center Ridge	N.Ridgeville	OH	44039	2	8	1	Fast Food, Restaurants, Burgers	-81.9959821	41.3978423
y_Oig8XBVyyOJ-r_m95ABg	Wendy's	60 Town Square Way	Pittsburgh	PA	15227	2.5	3	1	Fast Food, Restaurants, Burgers	-79.9829501286	40.3675100199
XMCNABugc_Pw3g4LohYZww	McDonald's	7277 Saltsburg Rd	Penn Hills	PA	15235	1.5	6	1	Restaurants, Burgers, Fast Food, Coffee & Tea, Food	-79.7880913317	40.4771925769
9QvlTB8o2oxtWIVUc-DLVQ	Burger King	971 North Court Street	Medina	OH	44256	2	7	1	Restaurants, Fast Food, Burgers	-81.8638186	41.1521147
2pWpFiaAY_RYqx-sVqLlRg	McDonald's	21675 Center Ridge Rd	Rocky River	OH	44116	4	7	1	Food, Restaurants, Burgers, Fast Food, Coffee & Tea	-81.8601635098	41.4592174908
PuxKvdjE1vyPyswDZ1ZFFA	McDonald's	27322 Lorain Rd	North Olmsted	OH	44070	2	9	1	Coffee & Tea, Restaurants, Food, Burgers, Fast Food	-81.9248811977	41.4155471538
eDoXXly5LT2GkMUTZddKtw	Burger King	6000 Memphis Ave	Cleveland	OH	44144	2	9	1	Burgers, Restaurants, Fast Food	-81.7284869	41.4402949
tOET35bbqhf7FSJCz4czqg	McDonald's	9101 Kinsman Ave	Cleveland	OH	44104	1	7	1	Food, Restaurants, Burgers, Sandwiches, Coffee & Tea, Fast Food	-81.6226145	41.472748
yLnpDARXjqc1Iaom-Pcf7g	McDonald's	4159 Lee Rd	Cleveland	OH	44128	2	7	1	Coffee & Tea, Fast Food, Burgers, Restaurants, Food	-81.5643129	41.4465092
cxCxWI097kFvORVhCLd6kw	Wendy's	502 Liberty Ave	Pittsburgh	PA	15222	3.5	3	0	Restaurants, Fast Food, Burgers	-80.0033629	40.4413206
m8sKolCBYLC7vFIWop7HKA	McDonald's	1430 W 117th St	Lakewood	OH	44107	1.5	30	1	Restaurants, Fast Food, Burgers, Coffee & Tea, Food	-81.7693389859	41.4826078
agxkmEg9ziET-_CUlBrT2w	Five Guys	30297 Detroit Rd	Westlake	OH	44145	3.5	27	1	Fast Food, Burgers, American (New), Restaurants	-81.9555501	41.4616591
-Ewxv_Wc1uQzJQQBeQJWyA	McDonald's	Raceway Plz	Carnegie	PA	15106	1.5	11	0	Restaurants, Burgers, Hot Dogs, Fast Food	-80.0937399	40.3868181
dcfh1BEj4EXKqA16zi0TiA	McDonald's	2733 E Washington Ave	Madison	WI	53704	1	8	1	Fast Food, Food, American (New), Restaurants, Burgers, Coffee & Tea	-89.3459849135	43.1020816826
f1rTfiLVW5oofYlhTSEkYg	Wendy's	5360 Warrensville Center Road	Maple Hts.	OH	44137	2	8	1	Fast Food, Restaurants, Burgers	-81.537954	41.414767
_zrquX9OooU6OmYH0rr07w	McDonald's	3723 Washington Rd	Mc Murray	PA	15317	2	7	1	Restaurants, Fast Food, Coffee & Tea, Burgers, Food	-80.124013	40.2779174439
fUO4w9CBKv6_oP0VCk7VQg	Burger King	174 E Tallmadge Ave	Akron	OH	44310	2	5	1	Restaurants, Burgers, Fast Food	-81.508529	41.1017853
PvZoaoIOvIX-32ur3l_jww	Five Guys	2030 Pittsburgh Mills Blvd	Tarentum	PA	15084	4	21	1	American (New), Restaurants, Fast Food, Hot Dogs, Sandwiches, Burgers	-79.8017529	40.5707022
nDZiSJcugs5D1A1iwuMh8w	Wendy's	5815 St. Clair Ave.	Cleveland	OH	44103	1.5	7	1	Burgers, Restaurants, Fast Food	-81.6510169	41.5229982
Q-1rmWpYHi-vglQZppSeKQ	McDonald's	23321 Broadway Ave	Oakwood Village	OH	44146	1.5	16	1	Restaurants, Food, Burgers, Coffee & Tea, Fast Food	-81.510207653	41.3676995787
1xEFOt8ArF0k4cpqWUk9gg	McDonald's	4557 Ohio River Blvd	Pittsburgh	PA	15202	2.5	15	1	Restaurants, Coffee & Tea, Food, Burgers, Fast Food	-80.062186271	40.4921511238
R5TXUXSKpREYEX2PQ5goIw	McDonald's	12690 Rockside Rd	Garfield Heights	OH	44125	2.5	7	1	Fast Food, Restaurants, Coffee & Tea, Burgers, Food	-81.5972781822	41.3997529773
aXGFHBmure6O0xE-0ixUHQ	Burger King	2239 State Rd, Ste 45	Austinburg	OH	44010	2.5	7	1	Fast Food, Restaurants, Burgers	-81.5082111	41.1378108
8i04GQgUY3g8q2iw7mewIQ	McDonald's	306 S Market St	Monticello	IL	61856	1.5	5	1	Fast Food, Restaurants, Coffee & Tea, Burgers, Food	-88.5743495822	40.0237941507
5l3rL215ePgdxCnhXHGCEQ	McDonald's	415 Midway Blvd	Elyria	OH	44035	3	4	0	Fast Food, Restaurants, Burgers	-82.1077083842	41.3989589342
zG9306XlgO9EyIhSpBBw0Q	Burger King	909 Butler St	Etna	PA	15223	1.5	6	1	Restaurants, Burgers, Fast Food	-79.9475343	40.5111529
gpuhse-YJgkL0-W5z_xDRw	Wendy's	5200 Abbe Road	Elyria	OH	44035	2.5	9	1	Restaurants, Burgers, Fast Food	-82.0776106	41.4223459
tCCBl_sHPQsJg37g2fjRpA	McDonald's	2909 W Kirby Ave	Champaign	IL	61821	1.5	14	1	Fast Food, Food, Restaurants, Burgers, Coffee & Tea	-88.2938878146	40.0979104613
OQybCnZk7wG1YaAnlkmDlw	Burger King	5021 S O M Center Rd	Willoughby	OH	44094	1.5	7	1	Fast Food, Burgers, Restaurants	-81.4394652	41.6242199
5wyCSyKqUCjRZKDaWX_fmQ	Wendy's	1374 Som Center	Mayfield Hts.	OH	44124	1.5	18	1	Burgers, Fast Food, Restaurants	-81.4392506	41.5231925
hctmFEbxF6upCtFhbHOb5A	McDonald's	35900 Center Ridge Rd	North Ridgeville	OH	44039	2.5	7	1	Burgers, Restaurants, Fast Food, Food, Coffee & Tea	-82.018085192	41.3908363372
XfxD1quRd8DhNwL1ZHwjMw	McDonald's	18228 Sloane Ave	Lakewood	OH	44107	2	3	0	Fast Food, Restaurants	-81.824894	41.486463
3vZ8ECJuiEZIuDv7OQ2NHw	McDonald's	11580 Euclid Ave	Cleveland	OH	44106	2	5	0	Restaurants, Fast Food	-81.604126	41.5093411
KOxJOievdW0w7lJVfE4QtQ	Wendy's	933 North Court St.	Medina	OH	44256	1.5	9	1	Restaurants, Fast Food, Burgers	-81.8635412	41.1536376
vJZUAEoGunENFVSZkAOT9Q	McDonald's	36141 Lakeshore Blvd	Eastlake	OH	44095	1	5	1	Fast Food, Food, Coffee & Tea, Burgers, Restaurants	-81.4275294784	41.6772055
yMrlJztKmGQ2Bg2pAgDS9g	Wendy's	3067 Medina Rd	Medina	OH	44256	1.5	4	1	Burgers, Restaurants, Fast Food	-81.7976254	41.1367702
MBodaRSaAp_FY3CkhfRXNQ	Wendy's	2858 Fish Hatchery Road	Fitchburg	WI	53713	2	15	1	Fast Food, Burgers, Restaurants	-89.4112148	43.0295557
ZRN0FtNiKU5ax3ZDa70REA	McDonald's	3221 Oberlin Ave	Lorain	OH	44052	2	5	1	Fast Food, Food, Burgers, Coffee & Tea, Restaurants	-82.184865	41.440923
4FdXVA-WxWwc5rmjRPJVnQ	McDonald's	4502 E Washington Ave	Madison	WI	53704	1.5	12	1	Restaurants, Food, Fast Food, Coffee & Tea, Burgers	-89.3086069822	43.1287479014
f84Wh7dq6ex1rryPgmvPiA	McDonald's	630 Brownsville Rd	Pittsburgh	PA	15210	2	12	1	Coffee & Tea, Restaurants, Food, Fast Food, Burgers	-79.990983	40.409953
7TDAgfGK5duI3FoEFNTStg	McDonald's	6380 Stuebenville Pike	Crafton	PA	15205	2	18	1	Restaurants, Coffee & Tea, Fast Food, Food, Burgers	-80.1555794477	40.4483166773
RBwAfKwvWcZ8NY7zKbzYHg	Wendy's	7317 Mcknight Road	Pittsburgh	PA	15237	1.5	19	1	Hot Dogs, Burgers, Restaurants, Fast Food	-80.0118948193	40.5380720754
VbOImKyZXvLuYkF4gnQWfQ	Shake Shack	311 Park Ave, Ste 121A	Orange Village	OH	44122	3.5	198	1	Restaurants, Burgers	-81.486714	41.454034
NaqR4ptSaeqm33-rAtBz0w	Wendy's	116 Peebles Street	Wilkinsburg	PA	15221	2.5	9	1	Restaurants, Burgers, Fast Food	-79.8931622	40.4461454
oUk9yi2Pcu0isDYGgb7Hgg	McDonald's	100 Bobby Vinton Blvd	Canonsburg	PA	15317	2.5	20	1	Restaurants, Fast Food, Coffee & Tea, Burgers, Food	-80.1722453535	40.2636233695
1uAZaTHYn9rqTFtOl3sDEQ	McDonald's	33560 Aurora Rd	Solon	OH	44139	1.5	5	0	Fast Food, Burgers, Restaurants	-81.4400853	41.3845937
_E5sWHHe0tlVPuU6pR1gVg	Burger King	19000 Brookpark Rd	Cleveland	OH	44135	2	4	1	Restaurants, Burgers, Fast Food	-81.832565	41.419197
zKRLyE8FgTtzsp5zXU7G2Q	McDonald's	10637 Main St	Mantua	OH	44255	2.5	10	1	Fast Food, Food, Coffee & Tea, Restaurants, Burgers	-81.2248380482	41.2809862087
t-EcsRa2ihCBNTD_-wPDaA	Wendy's	7635 Mentor Ave.	Mentor	OH	44060	3	9	1	Fast Food, Restaurants, Burgers	-81.368383	41.658528
wVu1rjJuXa2QIsB20auW8g	Wendy's	436 Center Street	Chardon	OH	44024	1.5	5	1	Restaurants, Fast Food, Burgers	-81.2219784	41.5894389
9UyjZhGr9qVhwQzWCvElPg	McDonald's	1280 S Water St	Kent	OH	44240	2	16	1	Fast Food, Coffee & Tea, Burgers, Restaurants, Food, Hot Dogs	-81.358229	41.1424156
NNHnU8NXDM9fVPm52Z6-JA	McDonald's	1733 Pearl Rd	Brunswick	OH	44212	2	10	1	Food, Fast Food, Restaurants, Coffee & Tea, Burgers	-81.8408207671	41.2282995957
5CjdVHY504ccwZ2n3uyPOA	McDonald's	549 Clairton Blvd	Pittsburgh	PA	15236	1.5	7	1	Burgers, Restaurants, Fast Food, Food, Coffee & Tea	-79.9454031093	40.3317427775
a7xD9CEepfivEZAKrCEPbw	Wendy's	4001 Butler Street	Pittsburgh	PA	15201	2	36	1	Restaurants, Fast Food, Burgers	-79.9623076	40.4690987
0yFe_kQiynisvahzVuq6Mw	Burger King	415 Home Dr	Pittsburgh	PA	15275	1.5	11	1	Restaurants, Burgers, Fast Food	-80.1822319	40.4503788
gk_VKgx57BujzRSoQ4S47A	McDonald's	10400 Sprague Rd	Parma	OH	44130	1.5	10	1	Restaurants, Fast Food, Coffee & Tea, Food, Burgers	-81.7584977194	41.3511479386
4uS3BblH63PqikgUCnyEcA	McDonald's	6225 Mayfield Rd	Mayfield Heights	OH	44124	3.5	25	1	Fast Food, Restaurants, Food, Coffee & Tea, Burgers	-81.4553761724	41.5205062909
U4DbCXyX_Hd451MoQCw9iw	McDonald's	1429 Hwy 51 W	Stoughton	WI	53589	2	13	1	Coffee & Tea, Burgers, Food, Fast Food, Restaurants	-89.2379640661	42.917998014
Q23a-p9DWB9jbB1dgYeyTA	Five Guys	4025 Richmond Rd, Unit H	Warrensville Heights	OH	44122	4	32	1	Restaurants, Fast Food, Burgers, American (New)	-81.4958236	41.448183
vvVGXfsQdvonM2Cpg49DXw	McDonald's	7575 Auburn Rd	Concord Township	OH	44077	2	8	1	Burgers, Fast Food, Food, Restaurants, Coffee & Tea	-81.2451792508	41.6655367765
1_vzSC8IaHHMLg1d81KdjA	McDonald's	8775 Mentor Ave	Mentor	OH	44060	2.5	6	1	Coffee & Tea, Restaurants, Burgers, Food, Fast Food	-81.3261889162	41.6733636774
qw1T026yhIb6MR_Xf9a9Vw	McDonald's	712 Steels Corners Rd	Stow	OH	44224	2.5	5	1	Restaurants, Fast Food, Food, Coffee & Tea, Burgers	-81.4838623294	41.180775763
_rKz-rQPzUAIZWlUHCKgow	McDonald's	3708 Forbes Ave	Pittsburgh	PA	15213	1.5	22	1	Restaurants, Fast Food, Burgers, Coffee & Tea, Food	-79.957259	40.441228
DaxEPd4fQNCksMy3xzBraA	McDonald's	6201 Brecksville Rd	Independence	OH	44131	3	24	1	Coffee & Tea, Burgers, Fast Food, Food, Restaurants	-81.6404483467	41.3938699659
zZB5pi8nld4d8TPAL2seHA	Burger King	1549 East 55 Street	Cleveland	OH	44103	3.5	4	1	Restaurants, Fast Food, Burgers	-81.6515315	41.516755
qQu--8A6Ic0rytLfI1r4dg	Wendy's	1905 S Neil St	Champaign	IL	61820	1.5	5	0	Restaurants, Burgers, Fast Food	-88.2463012616	40.0908819198
NDKBMYjNhckqg_lf53plug	Burger King	22740 Lorain Rd	Fairview Park	OH	44126	2	5	1	Burgers, Fast Food, Restaurants	-81.8722778	41.4387357
rmzOeemTM-1jiJprpHec0A	Wendy's	2805 Jacks Run Road	White Oak	PA	15131	2.5	7	1	Burgers, Restaurants, Fast Food	-79.8086183	40.3379492
CObgcxFJuEXZZpm4Mw3z1A	McDonald's	1605 S Neil	Champaign	IL	61820	2	35	1	Fast Food, Burgers, Coffee & Tea, Restaurants, Food	-88.2452390296	40.0975206791
UbYl76BraRy2HObPNLs4Aw	McDonald's	7245 Pearl Rd	Middleburg Heights	OH	44130	2	7	1	Fast Food, Coffee & Tea, Burgers, Restaurants, Food	-81.803145	41.368398
9HQVSY9-ZnrgTUF72I-4PQ	McDonald's	7700 Reynolds Rd	Mentor	OH	44060	1.5	7	1	Fast Food, Coffee & Tea, Food, Restaurants, Burgers	-81.3789760736	41.6610602747
YTVL8ZouIwFMZiwHJfYgTw	Burger King	5702 Royalton Rd	North Royalton	OH	44133	3.5	3	1	Fast Food, Restaurants, Burgers	-81.725799	41.3140234
So2tr4GnhCMYeZvfJYRCEQ	Burger King	1795 Snow Rd	Parma	OH	44134	2.5	5	1	Burgers, Restaurants, Fast Food	-81.6948725	41.4047596
d2VdAB1-AasPxxLPL6QE4A	McDonald's	2750 Prairie Lakes Dr	Sun Prairie	WI	53590	1.5	28	1	Coffee & Tea, Restaurants, Burgers, Fast Food, Food	-89.2670749911	43.1665948496
CNXUru6x_qrG8R-IeOuwgQ	McDonald's	1705 S Philo Rd	Urbana	IL	61801	2	7	1	Fast Food, Burgers, Coffee & Tea, Food, Restaurants	-88.1911993667	40.0973688669
h92Eq9JOllmX9cQBfz2ggA	Wendy's	4000 Medina Rd	Akron	OH	44333	3.5	4	1	Fast Food, Burgers, Restaurants	-81.6431377862	41.1341362521
I79WiJ-7Xkufc392qH77ag	Burger King	9535 State Route 14	Streetsboro	OH	44241	1	5	1	Restaurants, Burgers, Fast Food, Hot Dogs	-81.3568302	41.2441662
riOcJNKde7ZpkH_n7HtZ5w	McDonald's	5304 Royalton Rd	North Royalton	OH	44133	1	8	1	Burgers, Restaurants, Food, Coffee & Tea, Fast Food	-81.7227438	41.3144333
di_tqAB6F8AsTnBFtvqs-w	McDonald's	300 Market Place Dr	Oakdale	PA	15071	1.5	15	1	Food, Fast Food, Coffee & Tea, Burgers, Restaurants	-80.2393197	40.4408929
xTf9XC5JG4Al7f9mP5tpsg	Burger King	14 Pearl Rd	Brunswick	OH	44212	2	9	1	Fast Food, Restaurants, Burgers	-81.8369237	41.2751664
Ju6Dq1mZ6jZ7W136j1oB1w	Burger King	14101 Cedar Rd	South Euclid	OH	44121	3	7	1	Burgers, Fast Food, Restaurants	-81.5319758	41.5016817
m8qGdllgcUSqZmcryQWM9A	McDonald's	4910 N Market St	Champaign	IL	61822	1.5	10	1	Burgers, Restaurants, Coffee & Tea, Fast Food, Food	-88.240266	40.178005
G9LyIc5LgBNM_zF8BJMhNg	McDonald's	120 Penn Cir W	Pittsburgh	PA	15206	2.5	8	0	Hot Dogs, Restaurants, Burgers, Fast Food	-79.9269035	40.4630795
Sr_VUJBhqcKCDLRv0JkrDg	McDonald's	1650 Copley Rd	Akron	OH	44320	1	5	1	Restaurants, Fast Food, Burgers, Coffee & Tea, Food	-81.5813845878	41.0841590818
GaP5KfdlDuNasKgTNR8Saw	Wendy's	891 Freeport Road	Pittsburgh	PA	15238	2	9	1	Burgers, Fast Food, Restaurants	-79.8906252	40.4869284
NcCl0Awt7dF6PZmFHXWGNw	McDonald's	430 Penn Ave	Wilkinsburg	PA	15221	2	14	1	Burgers, Restaurants, Fast Food, Coffee & Tea, Food	-79.8886681348	40.4446355878
bRrr2tmhBnE1uGFqmdFUhg	Wendy's	1487 Center Road	Avon	OH	44011	3.5	7	1	Burgers, Fast Food, Restaurants	-82.018942	41.468272
oia3V-RDZepljWUGCRVdaw	Burger King	3220 Library Rd	Castle Shannon	PA	15234	2.5	6	1	Fast Food, Restaurants, Burgers	-80.0116335	40.3696836
INsBi18bVl4UNqRcGzAkLQ	McDonald's	11420 Buckeye Rd	Cleveland	OH	44104	1	9	1	Burgers, Fast Food, Food, Coffee & Tea, Sandwiches, Restaurants	-81.6047511902	41.48092
EOlHhLgp32dCdSlsMpiG6A	Five Guys	517 State St	Madison	WI	53703	3.5	73	1	Fast Food, Burgers, Restaurants	-89.3943667	43.0746782
F8p7jBnOJIcclFL8AEVt0g	Five Guys	4899 William Penn Hwy	Murrysville	PA	15668	3.5	8	0	Burgers, Restaurants, Fast Food, American (New)	-79.6615748	40.421954
OEXe9Rge71Ha3qLKGIK9gQ	McDonald's	1102 Regent St	Madison	WI	53715	2.5	32	1	Restaurants, Coffee & Tea, Fast Food, Burgers, Food	-89.4045227766	43.0680177754
XppfCknY2p3xhEgrelEqzg	McDonald's	2200 Snow Rd	Parma	OH	44134	1.5	6	1	Restaurants, Fast Food, Coffee & Tea, Burgers, Food	-81.6979341209	41.4053328735
kmtA5-Yz6sy5bbCdJ0T8-w	Burger King	2691 State Rd	Cuyahoga Falls	OH	44223	1	7	1	Burgers, Fast Food, Restaurants	-81.5080582	41.1469764
KedpWqBphmRopwBd7trzFw	Wendy's	608 S Sixth St	Champaign	IL	61820	2	8	0	Restaurants, Fast Food, Burgers	-88.2302965969	40.1108047945
QzpdN_I4B_A6b5PzPIUchA	McDonald's	500 Leavitt Rd	Amherst	OH	44001	2	25	1	Burgers, Fast Food, Coffee & Tea, Restaurants, Food	-82.2101153433	41.411874957
_4-kSAZ1qopE2GcMojLxzg	Burger King	414 Water Street	Chardon	OH	44024	1	5	1	Burgers, Restaurants, Fast Food	-81.2106144	41.5812817
K9vNp74Ev9Am6VueAjCOAw	McDonald's	505 A St	Sun Prairie	WI	53590	1.5	18	1	Food, Restaurants, Burgers, Fast Food, Coffee & Tea	-89.2299473367	43.1879461637
7svK0DI4BOP0cqjSww7cZQ	McDonald's	7702 Mc Knight Rd	Pittsburgh	PA	15237	1.5	10	1	Coffee & Tea, Burgers, Food, Restaurants, Fast Food	-80.016399622	40.5463340227
YdAF8Csxnxvj4TXz7ffH1Q	Burger King	1321 West Bagley Rd	Berea	OH	44017	2	6	1	Burgers, Fast Food, Restaurants	-81.8926865	41.3721471
0Z_r3EFCyoPCHlnNwGBTtw	McDonald's	547 Broad St	Elyria	OH	44035	1	3	0	Restaurants, Burgers, Fast Food	-82.1088214	41.3680907
TsNYXmSJYjIq1WN8EfP0Aw	McDonald's	8230 Euclid Ave	Cleveland	OH	44106	1.5	11	0	Restaurants, Burgers, Fast Food	-81.630067	41.503143
nZ4uuPHq0QLM5DwI52aO3Q	Burger King	7500 Detroit Rd	Cleveland	OH	44102	3	5	1	Restaurants, Fast Food, Burgers	-81.7368571299	41.4827155505
5qK-Tjo3jJLHOSgvtMcmSg	McDonald's	5745 Heisley Rd	Mentor	OH	44060	2.5	7	1	Burgers, Food, Coffee & Tea, Restaurants, Fast Food	-81.3001906872	41.7143805681
WB1albu5FvNP16BAtTIIVg	Wendy's	1015 Ohio River Blvd	Avalon	PA	15202	1	18	1	Restaurants, Burgers, Fast Food	-80.0635987	40.4940917
XS9w11zE6CuHAb8N1TeJzw	Burger King	11790 Madison Ave	Lakewood	OH	44107	2	5	1	Burgers, Fast Food, Restaurants	-81.7699683	41.4773693
l41wGszBMiKliQ8F6syUKw	McDonald's	200 Walmart Plz	Gibsonia	PA	15044	3	6	1	Restaurants, Coffee & Tea, Food, Fast Food, Burgers	-79.9441087246	40.6214804939
_cnEt-zbF3WnDt9ZapaCIQ	Wendy's	558 Griswold	Elyria	OH	44035	1.5	9	1	Fast Food, Burgers, Restaurants	-82.107802	41.400567
3XBN60tLWqr7WZuDZsyZkA	McDonald's	6400 Macedonia Commons Blvd	Macedonia	OH	44056	1.5	26	1	Fast Food, Food, Coffee & Tea, Restaurants, Burgers	-81.5179331508	41.3059661291
hZ79bbzGuiU0ThbasNEALQ	McDonald's	363 Perry Hwy	Pittsburgh	PA	15229	2	13	1	Coffee & Tea, Food, Restaurants, Burgers, Fast Food	-80.0293178149	40.5175797044
iKz28QQI73mji28XNJFMUw	McDonald's	3023 Washington Pike	Bridgeville	PA	15017	2	28	1	Restaurants, Fast Food, Burgers, Food, Coffee & Tea	-80.1145833	40.3537208
d24LIT55-aAr7l1X99vpjw	McDonald's	8329 Mayfield Rd	Chesterland	OH	44026	2.5	9	1	Coffee & Tea, Restaurants, Fast Food, Burgers, Food	-81.3444543367	41.5215677004
aYNIFfjoNiVeqItKReme9A	Burger King	34275 Aurora Rd	Solon	OH	44139	1.5	11	1	Restaurants, Burgers, Fast Food	-81.4344755	41.3847539
WDizddkAgaQNYA0EbQLCzA	Wendy's	2363 East Aurora Road	Twinsburg	OH	44087	1.5	20	1	Fast Food, Burgers, Restaurants	-81.454455423	41.3119228192
628e-765wk51Q0diAuLbuQ	McDonald's	5114 Northfield Rd	Maple Heights	OH	44137	1.5	6	1	Restaurants, Fast Food, Food, Burgers, Coffee & Tea	-81.5278078857	41.4212815367
PuY09XUxfQhURBhaQNJuqw	McDonald's	3211 Clark Ave	Cleveland	OH	44109	2.5	11	1	Burgers, Restaurants, Irish, Food, Fast Food, Coffee & Tea	-81.7048192723	41.4695154758
66-KwrVLQonWugvwsgN-YA	Burger King	10260 Brookpark Rd	Cleveland	OH	44130	3	8	1	Restaurants, Burgers, Fast Food	-81.7568759993	41.4188442291
0-aoCkMjQqoOCr04QYZ1dA	McDonald's	25640 Miles Rd	Bedford Heights	OH	44128	2	11	1	Fast Food, Burgers, Coffee & Tea, Food, Restaurants	-81.4975503087	41.4238585
QZjBYhI6gX-hD3d1Ed-s7Q	Wendy's	26650 Lorain Rd	N.Olmsted	OH	44070	1	12	1	Fast Food, Burgers, Hot Dogs, Restaurants	-81.9177204	41.4186553
HAt7VY-_uhl_ERUpGVqwVQ	Burger King	12380 Pearl Rd	Strongsville	OH	44136	2	6	1	Restaurants, Fast Food, Burgers	-81.8370717	41.3225304
XOJHCTurJR--csljYSakvQ	Burger King	14601 Snow Rd	Brook Park	OH	44142	1.5	7	1	Fast Food, Burgers, Restaurants	-81.797141	41.4041309
PIiVJJ4mgiltU-u6Byn2_w	Wendy's	603 Clairton Blvd.	Pittsburgh	PA	15236	1.5	15	1	Fast Food, Restaurants, Burgers	-79.9452176	40.3310179
RIs9S5ZiXBSTyjt6P2Yshw	McDonald's	10710 Lorain Ave	Cleveland	OH	44111	1	5	1	Restaurants, Fast Food, Burgers, Food, Coffee & Tea	-81.7609793	41.4649382
WGO02-cLiWjeJh0PPLQMBw	Wendy's	27400 Chagrin Blvd.	Orange	OH	44122	1	20	1	Fast Food, Breakfast & Brunch, Restaurants, Burgers	-81.4859401	41.462061
z7h3_K5lg3RnYieq04C0Vg	McDonald's	5240 Turney Rd	Garfield Heights	OH	44125	1	13	1	Food, Restaurants, Burgers, Fast Food, Coffee & Tea	-81.608104	41.4190528597
eWfFlL1dIWv6lGK4fhqryA	McDonald's	550 N Center St	Lagrange	OH	44050	1.5	3	1	Burgers, Restaurants, Coffee & Tea, Food, Fast Food	-82.1191951632	41.2460489352
VahYIkK6nH3jTPrJUfZnlw	McDonald's	3875 Medina Rd	Montrose	OH	44333	1.5	22	1	Fast Food, Food, Coffee & Tea, Restaurants, Burgers	-81.6387519939	41.136411217
P8nY22PirIp-d1GpDn7qnA	Five Guys	117 S Bouquet St	Pittsburgh	PA	15213	3.5	72	1	Fast Food, Burgers, American (New), Restaurants	-79.9566695	40.4422516
kCcXViFXSrr7IXsS53Y40A	McDonald's	10529 Perry Hwy	Wexford	PA	15090	1.5	11	1	Fast Food, Food, Coffee & Tea, Burgers, Restaurants	-80.0540599	40.610154
zXb5pP4zMHvmusweYfr9TQ	McDonald's	6910 Odana Rd	Madison	WI	53719	2.5	15	1	Fast Food, Food, Restaurants, Coffee & Tea, Burgers	-89.5017408	43.0571084017
Aua2Vi32K-G4LE0JCtAwiw	McDonald's	2901 Dryden Dr	Madison	WI	53704	1	19	1	Coffee & Tea, Burgers, Fast Food, Food, Restaurants	-89.3588528037	43.1284709106
uU1_TvlSnNtCavikmCv88Q	Burger King	32533 Lorain Rd	North Ridgeville	OH	44039	1	3	1	Fast Food, Restaurants, Burgers	-81.9787513	41.3833142
GuiXABDep7_6IVEWPGm-fg	Wendy's	6970 Ridge Road	Parma	OH	44129	3.5	7	1	Fast Food, Burgers, Restaurants	-81.735203	41.375810800000000
AGZt_nnu6chlLmFJ9ChS3w	Burger King	2532 Aurora Rd	Twinsburg	OH	44087	3	5	1	Burgers, Restaurants, Fast Food	-81.4478763	41.3108303
Zhbv03meUS1VoatWzzuaVQ	Burger King	1800 Brookpark Rd	Cleveland	OH	44109	2.5	3	1	Restaurants, Burgers, Fast Food	-81.6921397	41.4197191
ev4frBEgYDHiNZPcdYAIbA	McDonald's	250 Summit Park Dr	Pittsburgh	PA	15275	1	4	1	Fast Food, Burgers, Coffee & Tea, Food, Restaurants	-80.176387	40.447262
-m3VtLuy5sEzpJoOU5zYUg	McDonald's	907 Freeport Rd	Pittsburgh	PA	15238	3.5	4	1	Fast Food, Restaurants, Burgers, Coffee & Tea, Food	-79.889677316	40.4869575759
-RxzvvyKBOPOzeTvagqEfg	McDonald's	100 Davis Blvd	Pittsburgh	PA	15275	2	7	1	Restaurants, Burgers, Coffee & Tea, Food, Fast Food	-80.1730923262	40.4492228374
XQ_-GRuRlSwDwg07UjVTAA	McDonald's	70 Allegheny River Blvd	Verona	PA	15147	1.5	3	1	Fast Food, Burgers, Restaurants, Food, Coffee & Tea	-79.8449715972	40.4967333923
lG4NNpcPWYSmLKEfBagnTw	McDonald's	2051 W Broadway	Monona	WI	53713	2	19	1	Food, Coffee & Tea, Restaurants, Burgers, Fast Food	-89.3490359187	43.0465419315
lSJYTotaOEi1TtEzxbbUxg	McDonald's	4738 Ridge Rd	Brooklyn	OH	44144	2	6	1	Restaurants, Fast Food, Food, Burgers, Coffee & Tea	-81.73491	41.426362
n6u46Q-L5txJTNzR7kO2UA	McDonald's	16407 Detroit Ave	Lakewood	OH	44107	2	13	1	Fast Food, Burgers, Food, Coffee & Tea, Restaurants	-81.8117596992	41.4850685884
Y3DIeqZGytfbvW-ZJG96LQ	McDonald's	10333 Northfield Rd	Northfield	OH	44067	1.5	12	1	Burgers, Restaurants, Coffee & Tea, Fast Food, Food	-81.5287555017	41.3412954826
giNUn704T4gpTk8pix170A	Burger King	519 Avon Beldon Rd	Avon Lake	OH	44012	3.5	4	1	Burgers, Restaurants, Fast Food	-82.0183833	41.4921551
Q-OwNX5j6xDvX5QRFEB9wg	Wendy's	10490 Perry Hwy	Wexford	PA	15090	2	5	0	Restaurants, Fast Food, Burgers	-80.0524481	40.6081819
W9FpILKWwGP9Ub19CtqGXQ	McDonald's	14841 Snow Rd	Brook Park	OH	44142	1	4	1	Fast Food, Restaurants, Food, Coffee & Tea, Burgers	-81.7997938476	41.4036973097
dSwOo43YKAIvp0PjNXdW2g	McDonald's	1000 Airport Blvd, Main Terminal, Pittsburgh International Airport	Pittsburgh	PA	15231	3	9	1	Restaurants, Fast Food, Burgers, Food, Coffee & Tea, American (Traditional)	-80.2536034584	40.4950118912
P8ersCaJqnL1paY9FFnZ9w	Burger King	822 Windsor Street	Sun Prairie	WI	53590	1	37	1	Burgers, Restaurants, Fast Food	-89.2271823	43.1879489
_VG3IAIbXdends4ATxlEiA	McDonald's	2402 S Park St	Madison	WI	53713	1.5	15	1	Fast Food, Burgers, Coffee & Tea, Food, Restaurants	-89.394677	43.039533
TdTl_T42gbewHCMQVqZ_xA	Wendy's	5055 Library Rd.	Bethel Park	PA	15102	1.5	19	1	Restaurants, Fast Food, Burgers	-80.02406	40.33748
LjjfsPpNEyHHouAyirPJcQ	Burger King	605 East Main Street	Kent	OH	44240	2	3	1	Burgers, Restaurants, Fast Food, Hot Dogs	-81.34961	41.154171
VdQyoAc-yvfq4knc2wFunA	Burger King	994 High Street	Wadsworth	OH	44281	3	4	1	Burgers, Restaurants, Fast Food	-81.7296839	41.0500448
qfZOqFMtXydpuNkgOf8MGQ	Burger King	7677 Broadview Rd	Seven Hills	OH	44131	1	10	1	Burgers, Restaurants, Fast Food	-81.6840112	41.3570699
Hn4gBm58p8Txa6vnGLqTow	Five Guys	13971 Cedar Rd	South Euclid	OH	44118	3.5	34	1	Fast Food, Restaurants, American (New), Burgers	-81.537297	41.5015467
ddgdt0ab4xY6iIqI5eX8Zw	Burger King	564 Forbes Ave	Pittsburgh	PA	15219	3	8	1	Burgers, Fast Food, Restaurants	-79.9950743923	40.4379247413
5VwUFfGpIWPe_W9A64lmtA	Five Guys	8249 W Ridgewood Dr	Parma	OH	44129	4.5	13	1	Hot Dogs, Restaurants, Sandwiches, Burgers, Fast Food	-81.7429301	41.3845298
JoMHtnAfdBI78-u17mqw8Q	McDonald's	465 Richmond Rd	Richmond Heights	OH	44143	2	4	1	Fast Food, Burgers, Coffee & Tea, Restaurants, Food	-81.4964327457	41.5520624207
kfTvilKjXhD_0GmlmKdW_A	Wendy's	2937 Lorain Rd.	Cleveland	OH	44113	1.5	17	1	Burgers, Restaurants, Fast Food	-81.7067053	41.4825401
c2uAqJ2REpLMCZO2jxdi9w	Five Guys	901 B West Anthony Dr	Champaign	IL	61821	2.5	40	1	American (Traditional), Burgers, Restaurants, American (New), Fast Food	-88.2586063	40.1374723
GDylnjwPm2fcqT8FgG7gJg	McDonald's	12 Munroe Falls Ave	Munroe Falls	OH	44262	3	11	1	Food, Restaurants, Coffee & Tea, Fast Food, Burgers	-81.4396628737	41.1396584862
uznSXfPkJgntadZ4gKHSoQ	Wendy's	14944 Pearl Rd	Strongsville	OH	44136	3	5	1	Burgers, Restaurants, Fast Food	-81.8358484	41.3069005
KU6EYISdKH-jw3w7vZa6Pw	McDonald's	15110 Saint Clair	Cleveland	OH	44110	1	7	1	Food, Fast Food, Burgers, Restaurants, Coffee & Tea	-81.575911	41.5527029982
atu9bo2flyoM3CzihE-OlQ	Wendy's	1660 Cochran Rd.	Pittsburgh	PA	15220	1	22	1	Fast Food, Restaurants, Burgers	-80.062159	40.392738
MrlNl43mM8Y259tKzMj4Mw	Burger King	920 Ohio River Blvd	Avalon	PA	15202	3	10	1	Burgers, Restaurants, Fast Food	-80.0662494	40.4950111
wGKM32sRVy60i0LHVnHPDw	Wendy's	3516 Warrensville Center Rd	Cleveland	OH	44122	2	15	1	Burgers, Hot Dogs, Fast Food, Restaurants	-81.5365526	41.4641062
WY42DgmUoYk1037gssAkxA	Burger King	4 Center Rd	Bedford	OH	44146	2.5	7	1	Burgers, Restaurants	-81.5367155	41.3934314
aFJ8NSdpJi9LcaMm6ICowQ	Burger King	2110 North Prospect Ave	Champaign	IL	61822	1.5	18	1	Burgers, Restaurants, Fast Food	-88.2572022	40.1421056
my7WOW-Dq7eV4OxfxmlI-g	Burger King	11002 Lorain Ave	Cleveland	OH	44111	3	3	1	Fast Food, Burgers, Restaurants	-81.7631494	41.4641431
QNzX-iaiG2uIWQ2vOMq13A	Wendy's	351 Lincoln Highway	N.Versailles	PA	15137	1.5	7	1	Fast Food, Restaurants, Burgers	-79.82283	40.3847154
tt96sjIQIKgtGEvRHhLfBg	Burger King	6909 Odana Rd	Madison	WI	53719	2.5	15	1	Fast Food, Restaurants, Burgers	-89.5010698	43.0561005
MqhxKfI7oMjUTMqH2gnhyg	McDonald's	1812 N Neil	Champaign	IL	61820	1.5	21	1	Fast Food, Food, Restaurants, Coffee & Tea, Burgers	-88.2430710516	40.1375695808
C8jxaI_NmVpINEy0JquNZw	McDonald's	1787 State Rd	Cuyahoga Falls	OH	44223	1	15	1	Fast Food, Burgers, Food, Restaurants, Coffee & Tea	-81.5077091753	41.1310837
OY1MdIc0J3BB7ZUJ7__Bbg	Burger King	5240 Library Rd	Bethel Park	PA	15102	2.5	6	1	Burgers, Restaurants, Hot Dogs, Fast Food	-80.0231444	40.331439
PVRBeN2WYGzD4SWj1NX0XQ	McDonald's	350 W Bagley Rd	Berea	OH	44017	2	15	1	Food, Coffee & Tea, Restaurants, Fast Food, Burgers	-81.8668314815	41.3725516241
jyAhu2jqSMBoeJi-KQ5lZw	Wendy's	820 Richmond Rd	Richmond Hts.	OH	44143	2	17	1	Burgers, Fast Food, Restaurants	-81.497616	41.5380238
2syRDb5oz8KUcI6KNS6ltg	Burger King	5760 Ridge Rd	Parma	OH	44129	1.5	5	1	Burgers, Fast Food, Restaurants	-81.73454	41.405694
FUTAQs8NEgpiQUXISaXfLg	Burger King	1325 N Dunlap Ave	Savoy	IL	61874	2	15	1	Restaurants, Fast Food, Burgers, Food	-88.2489681244	40.0706497611
efK5mjVPxdmqFZT06S4dzA	McDonald's	1010 4th Ave	Coraopolis	PA	15108	2.5	17	1	Restaurants, Burgers, Fast Food, Coffee & Tea, Food	-80.1631057262	40.5178610151
y-1sMhUMubrHWdIW4FaE8w	Wendy's	2421 S. Stoughton	Madison	WI	53716	2.5	9	1	Restaurants, Fast Food, Sandwiches, Burgers	-89.308293	43.062872
qrADQd0m9EenJmxMjcFtZg	McDonald's	301 W Main St	Monongahela	PA	15063	1.5	9	1	Food, Restaurants, Coffee & Tea, Burgers, Fast Food	-79.9254224487	40.2029637425
t-ndtWJD7HesQwnreXv8Tw	McDonald's	3160 Medina Rd	Medina	OH	44256	2.5	10	1	Restaurants, Fast Food, Coffee & Tea, Burgers, Food	-81.8011144502	41.1357052396
3dnF0DnQX0PqRb8wDyMJkA	McDonald's	3115 Center Rd	Brunswick	OH	44212	2	15	1	Coffee & Tea, Burgers, Restaurants, Fast Food, Food	-81.8028514087	41.2397004162
7Wj3lyrLaMXde6G-v4yRKg	Wendy's	460 Howe Avenue	Cuyahoga Falls	OH	44221	1.5	13	1	Burgers, Restaurants, Fast Food	-81.478863	41.118749
Hw4rpWSCdaz59o-VyaDg6Q	Wendy's	9717 State Route 14	Streetsboro	OH	44241	2	3	1	Restaurants, Burgers, Food, Fast Food	-81.364274415	41.249681049
dBpQy7SF8qD9oVttzfuPKQ	Burger King	2210 Fairless Dr	Lorain	OH	44055	1.5	3	1	Burgers, Restaurants, Fast Food	-82.1188685	41.4269752
YS1XX9AONq2hdBbU3T-uGw	McDonald's	500 Liberty Ave	Pittsburgh	PA	15222	1.5	21	1	Coffee & Tea, Burgers, Fast Food, Restaurants, Food	-80.003619	40.441242
eOhKy_V4DVWDF47G8PmiEw	McDonald's	22291 Euclid Ave	Euclid	OH	44117	1.5	29	1	Fast Food, Burgers, Coffee & Tea, Restaurants, Food	-81.5256757941	41.5729746693
NIFrjfEot4GFR-tqiqrsHw	McDonald's	301 West Main St	Monongahela	PA	15063	1	6	1	Fast Food, Restaurants, Burgers	-79.9254459	40.2029587
ssLkDDah5ci-tQPq3iPFUg	Five Guys	36050-A Detroit Rd, Ste A	Avon	OH	44011	4	22	1	American (New), Fast Food, Restaurants, Burgers	-82.0222323	41.4603921
Fp6yMeo3K8422CbDQCLrBg	McDonald's	311 Midway Blvd	Elyria	OH	44035	1.5	11	1	Coffee & Tea, Food, Fast Food, Burgers, Pizza, Restaurants	-82.1077126265	41.3990991177
IMZE8ujP9-lHpuhbum8ECA	Wendy's	32601 Vine St.	Willowick	OH	44095	1.5	17	1	Hot Dogs, Burgers, Fast Food, Restaurants	-81.4561481	41.6428005
7l5t7Iw3qauVoSSrM6jm9g	McDonald's	608 Wood St	Pittsburgh	PA	15222	1.5	20	1	Coffee & Tea, Restaurants, Food, Fast Food, Burgers	-79.999117	40.442359
e_wiw1wi4MKm2Wnk08xiGw	McDonald's	6361 Penn Ave	Pittsburgh	PA	15206	1.5	37	1	Restaurants, Coffee & Tea, Food, Fast Food, Burgers	-79.9184943029	40.4587971801
0b5joPhf_UjX_uCQsO6JNg	McDonald's	1010 E Broad St	Elyria	OH	44035	2	5	1	Fast Food, Food, Restaurants, Burgers, Coffee & Tea	-82.0774157345	41.3647444946
fcOZX7sPaO2tVM_ehtfiNg	McDonald's	27570 Chagrin Blvd	Woodmere	OH	44122	1.5	42	1	Coffee & Tea, Fast Food, Burgers, Food, Restaurants	-81.4843694611	41.4619173231
Fqit51_n9W_5CuBjcM3mFQ	Burger King	7903 Granger Rd	Valley View	OH	44125	4	4	1	Burgers, Fast Food, Restaurants	-81.6319726	41.4145663
z7GWY9qP5l5JLt4rU5k-1w	Wendy's	3164 Leechburg Rd.	Lower Burrell	PA	15068	1	3	1	Burgers, Hot Dogs, Restaurants, Fast Food	-79.711225	40.5854459
6qAChWfCZVDvXNtcyhze-g	McDonald's	101 Hoffman Blvd	Duquesne	PA	15110	1	16	1	Food, Fast Food, Coffee & Tea, Burgers, Restaurants	-79.8632582277	40.3842109294
d8cpM8aV90Esmd1rlRgVbg	Wendy's	250 E. 222Nd Street	Euclid	OH	44123	2	12	1	Burgers, Restaurants, Fast Food	-81.5272338	41.6083384
AgIGsyUA0aKhUGFWOsI4AQ	Wendy's	610 William Marks Dr	Homestead	PA	15120	2.5	15	1	Restaurants, Fast Food, Burgers	-79.9018036	40.409722
2mroQ_qD_5kLTv88zADnXg	McDonald's	2224 Warrensville Center Rd	University Heights	OH	44118	1.5	27	1	Fast Food, Food, Coffee & Tea, Restaurants, Burgers	-81.5368099592	41.4990960285
nJYCyUpjms2E7SHgKwte9A	McDonald's	3820 Wm Penn Hwy	Murrysville	PA	15668	1	7	1	Restaurants, Burgers, Food, Coffee & Tea, Fast Food	-79.6990802139	40.42743994
JIxA9BaEjidsv3TYOi-HOg	Shake Shack	601 Euclid Ave	Cleveland	OH	44113	4	40	1	Fast Food, American (Traditional), Restaurants, Burgers	-81.689174	41.500334
rcRIL23Tf3G6g1ptFcsD-Q	McDonald's	2805 Gracy Center Way	Moon Township	PA	15108	1.5	10	1	Restaurants, Fast Food, Food, Coffee & Tea, Burgers	-80.2195621	40.5169133
hVyvFxmlWpGDQviQ4tls9Q	McDonald's	4500 Mayfield Rd	South Euclid	OH	44121	1.5	8	1	Coffee & Tea, Burgers, Food, Sandwiches, Fast Food, Restaurants	-81.518022269	41.5194286769
gJ0fZjMcoWuy_mCzJ2uj9g	McDonald's	36212 Euclid Ave	Willoughby	OH	44094	1.5	3	0	Restaurants, Burgers, Fast Food	-81.4289754	41.6268055
TfE45_KKAirTrJBKtoKq6A	Wendy's	1051 W. Graham Street	Stow	OH	44224	1.5	21	1	Fast Food, Restaurants, Burgers	-81.4755922	41.1636855
S_02VqM-sXAY9kDhvGxXtw	Five Guys	3273 Steelyard Dr	Cleveland	OH	44109	4	23	1	Fast Food, American (New), Restaurants, Burgers	-81.6870377	41.4645276
mVbGnu5VsAG79b0fMoKItA	McDonald's	1630 Penn Ave	Pittsburgh	PA	15222	1.5	16	1	Restaurants, Burgers, Hot Dogs, Food, Fast Food, Coffee & Tea	-79.9862857908	40.449315
S-HuIOsopWeKMsLwf90l9g	Burger King	1560 Norton Rd	Stow	OH	44224	1.5	7	1	Fast Food, Burgers, Restaurants	-81.4389473617	41.2025166631
SxQNPLf_wcmQvk2QFqQG_w	Five Guys	623 E Main St	Kent	OH	44240	4	25	1	Restaurants, Burgers, Fast Food, American (New), Sandwiches	-81.3488544	41.1540398
gt_ZbWa2e8yfb4hTbHFZpA	McDonald's	39100 Colorado Ave	Avon	OH	44011	2	15	1	Fast Food, Burgers, Restaurants, Coffee & Tea, Food	-82.0590752817	41.4658615718
trpUpkB4lxReIhfr60hlww	McDonald's	801 Allegheny Ave	Pittsburgh	PA	15233	1.5	36	1	Restaurants, Burgers, Coffee & Tea, Food, Fast Food	-80.0189925294	40.4508395522
sftngDSNyJKV_ieAaxSGyA	Shake Shack	5300 Riverside Dr	Cleveland	OH	44135	3	12	1	Restaurants, Burgers	-81.8386965395	41.410549164
VHskIuH12SlaguUA83XmYA	Burger King	1708 Philo Rd	Urbana	IL	61802	2	11	1	Restaurants, Fast Food, Food, Burgers	-88.190285	40.0974649
42rDLL6vNJ5w66Ccj6a5XQ	McDonald's	3782 W 150th St	Cleveland	OH	44111	1.5	32	1	Food, Coffee & Tea, Fast Food, Restaurants, Burgers	-81.8019045889	41.4514991746
kJQbc861Qvm_HsNofAahDA	Five Guys	3 Ppg Pl	Pittsburgh	PA	15222	3.5	24	1	Burgers, Fast Food, Restaurants, Food, Hot Dogs	-80.00286879	40.4402035143
a5HUZPAn8J_cCyi_qQ29vg	Burger King	4150 State Route 306	Willoughby	OH	44094	1	14	1	Burgers, Restaurants, Fast Food	-81.3735395	41.6390033
-1HW4ALuB331RgjwHOA0Nw	Wendy's	4305 Kent Road	Stow	OH	44224	2	6	1	Burgers, Fast Food, Restaurants	-81.4047594	41.1568222
CeRxRXE4N_oKT0eFingcpA	Burger King	65 Montrose West Ave	Copley	OH	44321	2	4	0	Burgers, Fast Food, Restaurants	-81.6535415	41.134188
vHJiewL8K7QcDlm4qDR6Cw	Wendy's	5076 William Penn Hwy	Monroeville	PA	15146	2.5	12	1	Restaurants, Fast Food, Burgers	-79.7056081	40.4275593
yb5YMIqZGOBRxB__-xT9iQ	McDonald's	2845 Fish Hatchery Rd	Fitchburg	WI	53713	1.5	25	1	Burgers, Coffee & Tea, Food, Fast Food, Restaurants	-89.4095551532	43.0298462612
6h5UmbIV4HPFj5bklXj75w	McDonald's	1540 E 55th St	Cleveland	OH	44103	3.5	10	1	Fast Food, Restaurants, Coffee & Tea, Burgers, Food	-81.6524753758	41.5167508114
1TGti2jN5PstqlHelBBfNw	Five Guys	3845 Northern Pike	Monroeville	PA	15146	4.5	28	1	Burgers, Restaurants, Fast Food	-79.7776156822	40.4385940858
n3vrziSf4NLLxvNapVC-iw	Burger King	175 E Erie Street	Painesville	OH	44077	1.5	9	1	Restaurants, Burgers, Fast Food	-81.2449567	41.72784
SEdXR0L_scerP_18ZMyrzQ	McDonald's	5020 Darrow Rd	Stow	OH	44224	2	11	1	Coffee & Tea, Restaurants, Burgers, Fast Food, Food	-81.4410656691	41.2021686779
bKiZ8TCJ1tKgM-p1_y1qvg	Burger King	16511 Harvard Rd	Cleveland	OH	44128	2.5	3	1	Burgers, Fast Food, Restaurants	-81.564568	41.450142
xnmQ1-YwnQJiV4zrP2LDuw	Burger King	647-649 Smithfield Ave	Pittsburgh	PA	15222	2	24	1	Fast Food, Burgers, Restaurants	-79.9970847	40.4428107
UEEDnMulA6q6I_q9HDxpEA	McDonald's	1050 Graham Rd	Cuyahoga Falls	OH	44224	2	21	1	Restaurants, Burgers, Coffee & Tea, Food, Hot Dogs, Fast Food	-81.4758901298	41.1627833345
eulL-ktjA-YlcF3vWeW7vA	McDonald's	148 N Euclid Ave	Pittsburgh	PA	15206	1.5	10	1	Coffee & Tea, Burgers, Food, Fast Food, Restaurants	-79.9268916249	40.4630847306
6drsZVhOdG9i861OrOUw4w	McDonald's	13705 Euclid Ave	East Cleveland	OH	44118	1.5	5	1	Restaurants, Coffee & Tea, Sandwiches, Fast Food, Burgers, Food	-81.5878583398	41.5254712516
63iOXcDVSr8Jm0C8mjzo6g	McDonald's	1 Poplar St	Pittsburgh	PA	15205	1.5	12	1	Burgers, Hot Dogs, Restaurants, Coffee & Tea, Food, Fast Food	-80.0534026232	40.4273569448
CZNeNfo_6C8d3lFbkL_8vA	McDonald's	5261 Library Rd	Bethel Park	PA	15102	1	10	1	Coffee & Tea, Restaurants, Food, Burgers, Fast Food	-80.0223583	40.3319169
YPrFKB9D9bvhVd9LeDiJqg	McDonald's	2100 Washington Pike	Heidelberg	PA	15106	1.5	9	1	Restaurants, Burgers, Fast Food, Coffee & Tea, Food	-80.0931054354	40.3862803373
FnE_WckfalB0tBlXj205-w	McDonald's	6332 Broadway Ave	Cleveland	OH	44105	2	7	1	Food, Fast Food, Restaurants, Coffee & Tea, Burgers	-81.6465738416	41.462586365
ehlkCJ2QKzxnASXnDJ8goA	Wendy's	660 East Aurora Rd	Macedonia	OH	44056	2	10	1	Fast Food, Restaurants, Burgers	-81.5148531	41.3134893
I9Xn958b-l07iPpDrdOWeQ	McDonald's	4317 Northern Pike	Monroeville	PA	15146	3	9	1	Fast Food, Burgers, Restaurants, Food, Coffee & Tea	-79.7517634928	40.4344710172
wPIC8K6sitT7MleVxGcLaA	McDonald's	95 Richmond St	Painesville	OH	44077	1.5	7	1	Food, Burgers, Fast Food, Coffee & Tea, Restaurants	-81.2480083108	41.7246972681
qCJ5txE34m5OHx4UVRzCTA	Wendy's	5251 Turney Road	Garfield Hts.	OH	44125	4	4	1	Fast Food, Burgers, Restaurants, Hot Dogs	-81.6069748	41.4189569
-s3nJbZRXLMSpwud22iIPA	Burger King	121 Walmart Dr	North Versailles	PA	15137	2	16	1	Burgers, Restaurants, Fast Food, Hot Dogs	-79.82183	40.3862116
Al-oKob7eDmt-_Te9FHuzw	McDonald's	412 Main St	Grafton	OH	44044	1.5	7	1	Restaurants, Coffee & Tea, Fast Food, Food, Burgers	-82.0639497042	41.2866468735
qEWoqy5LGDsdr22R3Px8Pg	McDonald's	4409 Hwy 19	Windsor	WI	53598	2.5	9	1	Restaurants, Fast Food, Food, Burgers, Coffee & Tea	-89.337453	43.194067
Eof2K0RJunTSSv42XouLQg	McDonald's	4571 Kent Rd	Kent	OH	44240	3	4	0	Burgers, Restaurants, Fast Food	-81.397344	41.155031
6tkx1vYUJpj-dv588NcO_Q	McDonald's	1582 Mentor Ave	Painesville	OH	44077	2	8	1	Restaurants, Fast Food, Coffee & Tea, Burgers, Food	-81.2785743876	41.6992221408
BPWZRoeUQaKg5jAqLGkbMw	McDonald's	400 E Waterfront Dr	Homestead	PA	15120	1.5	38	1	Coffee & Tea, Food, Restaurants, Burgers, Fast Food	-79.909939	40.412055
z1OhXPMw8CVdfq3BBGkQNQ	Wendy's	12000 Buckeye Rd	Cleveland	OH	44120	1	7	1	Fast Food, Restaurants, Burgers	-81.5988434	41.4803307
cJCdtFwcRNiKzZELKoyw9Q	McDonald's	14615 Pearl Rd	Strongsville	OH	44136	2	11	1	Burgers, Coffee & Tea, Food, Restaurants, Fast Food	-81.8345876	41.3088532
tNQ3sH10qp5GzAV8eK-vsw	Wendy's	2396 Golden Mile Highway	Plum	PA	15239	2.5	3	1	Fast Food, Restaurants, Burgers	-79.7049956	40.4631945
A-CLHndPFipIlOP4dukZWA	Wendy's	215 Barrington Towne Square	Aurora	OH	44202	1.5	17	1	Restaurants, Fast Food, Burgers	-81.348623	41.317774
JEd-lj4E6WdCAOhcHz7UuA	McDonald's	8998 Brecksville Rd	Brecksville	OH	44141	2.5	5	0	Fast Food, Burgers, Restaurants	-81.6272098	41.317562
MjnBl6SHlH_C4toLMk7bGw	McDonald's	2533 Aurora Rd	Twinsburg	OH	44087	1.5	23	1	Coffee & Tea, Food, Fast Food, Restaurants, Burgers	-81.447555	41.311932
IVH0sXM_GISPTVHdpr4YOQ	Wendy's	1550 Mentor Ave.	Painesville	OH	44077	2	3	1	Fast Food, Restaurants, Burgers	-81.277649	41.6995618
rnksHtMALfngIl_vopHVXg	Burger King	15401 West High Street	Middlefield	OH	44062	2	3	1	Burgers, Restaurants, Fast Food	-81.0919571	41.4627842
e2IqS9_G0Hpulw5ItU-Y9Q	McDonald's	971 William Flynn Hwy	Glenshaw	PA	15116	1.5	10	1	Food, Coffee & Tea, Burgers, Fast Food, Restaurants	-79.9516928	40.5133688
y4giWpQy1TYYX7sZOk9NNg	Wendy's	15170 E. Bagley	Middleburg Hts.	OH	44130	1	17	1	Fast Food, Restaurants, Burgers, Hot Dogs	-81.8046083	41.3692811
HvvmhKDghEYp6jkkCkDAhA	Burger King	18000 Bagley Rd	Middleburg Heights	OH	44130	2	5	1	Hot Dogs, Burgers, Restaurants, Fast Food	-81.8264922	41.3724565
oK9mdYF8q0XSkhpKs8ChHg	Wendy's	2033 N Prospect Ave	Champaign	IL	61822	2	26	1	Fast Food, Restaurants, Burgers	-88.2583868	40.140347
Vz6JVuA6guXVBIMJF-2g3g	Wendy's	3735 Pearl Road	Cleveland	OH	44109	1	5	1	Burgers, Fast Food, Restaurants	-81.7011334	41.4533186
u1_a84WeHWa1YlreV6RZtg	Five Guys	1029 Freeport Rd	Pittsburgh	PA	15238	3.5	18	1	Fast Food, Burgers, Restaurants, American (New)	-79.8854112	40.4881157
5yvmtyb3KH1UqKy05HpDSw	Five Guys	15171 Pearl Rd	Strongsville	OH	44136	4	5	1	Burgers, Restaurants, Fast Food	-81.834509	41.305616
ID8oEJKHZtf0-bVxClOMBw	McDonald's	32528 Lorain Rd	North Ridgeville	OH	44039	3	18	1	Coffee & Tea, Fast Food, Food, Burgers, Restaurants	-81.9780881779	41.3849273284
6MkQ454ElyTcMrMLU3qm3g	Five Guys	2253 Zeier Rd	Madison	WI	53704	2.5	15	1	Burgers, Fast Food, Restaurants	-89.3041576026	43.129087145
gGlFPw1TFJANUl_FFmSNgA	Wendy's	6330 Brookpark Rd	Cleveland	OH	44129	2	15	1	Burgers, Fast Food, Restaurants	-81.7307099	41.4189318
6dDrLNa3_fx9E4lfKHtuig	McDonald's	25700 Detroit Rd	Westlake	OH	44145	2	23	1	Restaurants, Coffee & Tea, Food, Fast Food, Burgers	-81.9039197266	41.4704912757
Ylw5xdTfPN5L6Uhd54pzmA	McDonald's	4687 Verona Dr	Madison	WI	53711	1.5	6	1	Food, Burgers, Fast Food, Coffee & Tea, Restaurants	-89.457105	43.0322903775
GK6oAgFonv2p3CiBKmMknQ	McDonald's	2010 Value Dr	Tarentum	PA	15084	2.5	3	0	Fast Food, Restaurants, Coffee & Tea, Food, Burgers	-79.8043279	40.5640766
qErcBgymY29ilbg6LZ2BkQ	Burger King	25201 Rockside Rd	Bedford Heights	OH	44146	3	8	1	Burgers, Fast Food, Restaurants	-81.5009584141	41.4098412643
IHYqkS2xEZLBS5J9iez_lQ	Burger King	263 Babbitt Rd	Euclid	OH	44123	1.5	6	1	Restaurants, Burgers, Fast Food, Hot Dogs	-81.5256351	41.6084112
6S0mvMocUHY6g1rIQWKM_w	Five Guys	1237 Som Center Rd	Mayfield Heights	OH	44124	3.5	49	1	Fast Food, American (New), Restaurants, Burgers	-81.4374804	41.526545
WnuRPyTEvILZKCAPk2UwYQ	Wendy's	725 Allegheny Ave.	Pittsburgh	PA	15233	2	20	1	Burgers, Fast Food, Restaurants	-80.0189638138	40.4503026755
DBcpa6D6S9Cf1JKvkXvnlg	McDonald's	11591 Frankstown Rd	Pittsburgh	PA	15235	1.5	7	1	Restaurants, Fast Food, Coffee & Tea, Food, Burgers	-79.8289512796	40.4650998318
TZILpUd7Ag5HpdatXhiJbw	McDonald's	9192 Pearl Rd	Strongsville	OH	44136	2.5	3	1	Food, Coffee & Tea, Burgers, Restaurants, Fast Food	-81.8278438552	41.3426706761
fPivHoeKNFhPKZEKFeoIHg	Wendy's	2237 Noblestown	Pittsburgh	PA	15205	1.5	7	1	Restaurants, Fast Food, Burgers	-80.0532027	40.4290341
_omjGkkkddnKVWG3Uua9Kw	Five Guys	8234 Greenway Blvd	Middleton	WI	53562	3	51	1	Fast Food, Restaurants, Burgers, Hot Dogs	-89.5241067527	43.0906280441
mqUnwFYapb-on4v6n3wGlg	McDonald's	1720 W Exchange St	Akron	OH	44313	2	5	1	Fast Food, Restaurants, Burgers, Food, Coffee & Tea	-81.568785	41.108264
B26WnE0wZ_ZORFMmo9QL1g	Wendy's	13939 Euclid Ave.	Cleveland	OH	44112	2	3	1	Restaurants, Fast Food, Burgers	-81.5858516	41.5270773
NLOnd0990Aku1U8i3nxKgw	McDonald's	7195 Aurora Rd	Aurora	OH	44202	2.5	18	1	Food, Restaurants, Fast Food, Burgers, Coffee & Tea	-81.3858094811	41.3527228
fIB2hpMHSJEj8iCE5qbDuw	Wendy's	1705 Pinehollow Rd	Mckees Rocks	PA	15136	2	4	1	Restaurants, Burgers, Fast Food, Hot Dogs	-80.099449	40.4755186
Y4UYb1fgs7bLbSp08amiBw	Wendy's	3990 William Penn Highway	Monroeville	PA	15146	2	15	1	Fast Food, Restaurants, Burgers	-79.7718231	40.4381216
DysXlYb_WVlksoip8atIvQ	McDonald's	906 Bloomington Rd	Champaign	IL	61821	1	20	1	Restaurants, Fast Food, Coffee & Tea, Burgers, Food	-88.2595691326	40.1335154552
MkLlb2944GtK07wy9u_wbA	McDonald's	4214 Brownsville Rd	Brentwood	PA	15227	1	24	1	Restaurants, Food, Burgers, Coffee & Tea, Fast Food	-79.9838682137	40.3646352888
1N1pVa5SYqzopS0wvlAavw	Burger King	5725 Heisley Rd	Mentor	OH	44060	1	10	1	Burgers, Restaurants, Fast Food	-81.2998376	41.7151564
K04Pbn_5-xNidh0-xkI9vw	Five Guys	324 McHolme Dr	Pittsburgh	PA	15275	4	50	1	Restaurants, Fast Food, Burgers, American (New)	-80.1748956	40.4487065
lebZM1I1gTuAzRfIBNSgdw	McDonald's	5250 Detroit Rd	Elyria	OH	44035	2	21	1	Fast Food, Restaurants, Coffee & Tea, Burgers, Food	-82.0779334084	41.4252095527
W39f_7mEdphd-wzGwgPxow	McDonald's	5867 Wooster Pike	Medina	OH	44256	3	13	1	Restaurants, Coffee & Tea, Fast Food, Burgers, Food	-81.8635256588	41.1140571429
gB7X5o33o6W_rAGgHunSCA	McDonald's	4849 Mcknight Rd	Pittsburgh	PA	15237	2	10	1	Fast Food, Restaurants, Coffee & Tea, Food, Burgers	-80.008328	40.528601
Y-vxPbvPKcaLiYa9ZBXoDg	McDonald's	505 Smithfield St	Pittsburgh	PA	15219	1.5	24	0	Restaurants, Burgers, Hot Dogs, Food, Coffee & Tea, Fast Food	-79.9986369	40.4404327
